{"address": "Bläsiring 10, 4057 Basel", "price": 2880, "property_id": 4002065802, "area": "115m²", "rooms": 4.5, "lat": 47.5683969, "lon": 7.5871397, "amenities": [{"id": 71525383, "name": "Buvette Dreirosen", "amenity": "pub", "lat": 47.5694909, "lon": 7.5863581, "radius": 1000}, {"id": 71525550, "name": "Restaurant Zum Wilde Maa", "amenity": "restaurant", "lat": 47.5679494, "lon": 7.595093, "radius": 1000}, {"id": 71525553, "name": "Firenze", "amenity": "restaurant", "lat": 47.5692427, "lon": 7.5944428, "radius": 1000}, {"id": 71525557, "name": "Kiki Bar", "amenity": "pub", "lat": 47.5692456, "lon": 7.5941997, "radius": 1000}, {"id": 71525563, "name": "Cloves", "amenity": "restaurant", "lat": 47.5692033, "lon": 7.5913551, "radius": 1000}, {"id": 71525570, "name": "Senat Maki's", "amenity": "cafe", "lat": 47.5692456, "lon": 7.5938822, "radius": 1000}, {"id": 71525579, "name": "DejaVu", "amenity": "pub", "lat": 47.5694062, "lon": 7.5901309, "radius": 1000}, {"id": 71525588, "name": "Pizzeria Breisacherhof", "amenity": "restaurant", "lat": 47.5698877, "lon": 7.5916214, "radius": 1000}, {"id": 71525604, "name": "Eintracht", "amenity": "restaurant", "lat": 47.5675379, "lon": 7.5903738, "radius": 1000}, {"id": 71525611, "name": "Gatto Nero", "amenity": "restaurant", "lat": 47.5677788, "lon": 7.5906834, "radius": 1000}, {"id": 75940582, "name": "Zum Goldenen Fass", "amenity": "restaurant", "lat": 47.5656669, "lon": 7.5956372, "radius": 1000}, {"id": 75940590, "name": "Europe", "amenity": "parking", "lat": 47.5632757, "lon": 7.5968304, "radius": 1000}, {"id": 122336608, "name": "Delfin", "amenity": "restaurant", "lat": 47.5665578, "lon": 7.5917694, "radius": 1000}, {"id": 122336670, "name": "Chez Donati", "amenity": "restaurant", "lat": 47.5642081, "lon": 7.5841104, "radius": 1000}, {"id": 122337395, "name": "Parterre One", "amenity": "restaurant", "lat": 47.5637639, "lon": 7.591176, "radius": 1000}, {"id": 122626753, "name": "Cargo Bar", "amenity": "pub", "lat": 47.5641143, "lon": 7.5843179, "radius": 1000}, {"id": 138310840, "name": "Brombi", "amenity": "restaurant", "lat": 47.5705197, "lon": 7.5962519, "radius": 1000}, {"id": 252822647, "name": "Platanenhof", "amenity": "restaurant", "lat": 47.5758199, "lon": 7.5885972, "radius": 1000}, {"id": 252822648, "name": "nokta", "amenity": "cafe", "lat": 47.5758885, "lon": 7.5890687, "radius": 1000}, {"id": 254097107, "name": "Da Graziella", "amenity": "cafe", "lat": 47.5664559, "lon": 7.5928691, "radius": 1000}, {"id": 262502093, "name": "Acero", "amenity": "cafe", "lat": 47.5659948, "lon": 7.5941398, "radius": 1000}, {"id": 315128008, "name": "Sport Pub Milan", "amenity": "pub", "lat": 47.5689609, "lon": 7.5948146, "radius": 1000}, {"id": 481975100, "name": "Basler Kantonalbank", "amenity": "bank", "lat": 47.56148, "lon": 7.5925982, "radius": 1000}, {"id": 584740931, "name": "Basler Kantonalbank", "amenity": "bank", "lat": 47.5605854, "lon": 7.5869883, "radius": 1000}, {"id": 585023412, "name": "Klybeck Apotheke", "amenity": "pharmacy", "lat": 47.5656841, "lon": 7.591063, "radius": 1000}, {"id": 585046279, "name": "Didi Bar", "amenity": "cafe", "lat": 47.5656436, "lon": 7.5934442, "radius": 1000}, {"id": 585047863, "name": "Saint Tropez", "amenity": "cafe", "lat": 47.5651584, "lon": 7.5940531, "radius": 1000}, {"id": 585055185, "name": "Clara", "amenity": "cafe", "lat": 47.5644905, "lon": 7.592551, "radius": 1000}, {"id": 585056537, "name": "Klybeck Casino", "amenity": "restaurant", "lat": 47.5644661, "lon": 7.5916896, "radius": 1000}, {"id": 585133165, "name": "Lauch", "amenity": "restaurant", "lat": 47.5632537, "lon": 7.592183, "radius": 1000}, {"id": 585184294, "name": "Alchemist", "amenity": "restaurant", "lat": 47.5595586, "lon": 7.5882654, "radius": 1000}, {"id": 586277088, "name": "Punta Cana", "amenity": "restaurant", "lat": 47.5633753, "lon": 7.5962178, "radius": 1000}, {"id": 586281979, "name": "Bali", "amenity": "restaurant", "lat": 47.5627493, "lon": 7.5966598, "radius": 1000}, {"id": 586282496, "name": "Coop Vitality", "amenity": "pharmacy", "lat": 47.5629845, "lon": 7.5973118, "radius": 1000}, {"id": 586283598, "name": "Rheinfelder Hof", "amenity": "restaurant", "lat": 47.562527, "lon": 7.5967588, "radius": 1000}, {"id": 590084594, "name": "Hong Kong", "amenity": "restaurant", "lat": 47.5651063, "lon": 7.5981445, "radius": 1000}, {"id": 591435646, "name": "Holzschopf", "amenity": "restaurant", "lat": 47.5621229, "lon": 7.5947687, "radius": 1000}, {"id": 698555438, "name": "Pinar", "amenity": "restaurant", "lat": 47.5600294, "lon": 7.5858415, "radius": 1000}, {"id": 703589057, "name": "n/a", "amenity": "atm", "lat": 47.5745339, "lon": 7.5781162, "radius": 1000}, {"id": 796765566, "name": "Isbilir", "amenity": "fast_food", "lat": 47.5671452, "lon": 7.5952952, "radius": 1000}, {"id": 1028007577, "name": "Antik Café Bar", "amenity": "cafe", "lat": 47.5690588, "lon": 7.5902334, "radius": 1000}, {"id": 1409829319, "name": "UBS", "amenity": "bank", "lat": 47.561964, "lon": 7.5934456, "radius": 1000}, {"id": 1409829321, "name": "n/a", "amenity": "atm", "lat": 47.5618131, "lon": 7.5929422, "radius": 1000}, {"id": 1430898779, "name": "Bon Gout", "amenity": "restaurant", "lat": 47.566215, "lon": 7.5913795, "radius": 1000}, {"id": 1430901108, "name": "Taste of Mykonos", "amenity": "restaurant", "lat": 47.5660236, "lon": 7.5909437, "radius": 1000}, {"id": 1517612070, "name": "Bläsi Apotheke", "amenity": "pharmacy", "lat": 47.5674348, "lon": 7.5903846, "radius": 1000}, {"id": 1518116717, "name": "n/a", "amenity": "parking", "lat": 47.566533, "lon": 7.5897838, "radius": 1000}, {"id": 1518116722, "name": "n/a", "amenity": "parking", "lat": 47.5665619, "lon": 7.5899064, "radius": 1000}, {"id": 1518116885, "name": "n/a", "amenity": "parking", "lat": 47.5670829, "lon": 7.5903386, "radius": 1000}, {"id": 1518116928, "name": "n/a", "amenity": "parking", "lat": 47.5672126, "lon": 7.5899315, "radius": 1000}, {"id": 1518116956, "name": "n/a", "amenity": "parking", "lat": 47.5673091, "lon": 7.5902186, "radius": 1000}, {"id": 1520062898, "name": "Alpenblick", "amenity": "bar", "lat": 47.5659372, "lon": 7.5909695, "radius": 1000}, {"id": 1529984092, "name": "RiiBistro", "amenity": "restaurant", "lat": 47.5705632, "lon": 7.5868666, "radius": 1000}, {"id": 1576603312, "name": "EG Lounge", "amenity": "bar", "lat": 47.5636906, "lon": 7.5910618, "radius": 1000}, {"id": 1579334179, "name": "WSJ-209", "amenity": "parking", "lat": 47.5715949, "lon": 7.5814966, "radius": 1000}, {"id": 1592876743, "name": "Don Pincho", "amenity": "restaurant", "lat": 47.5645204, "lon": 7.5840604, "radius": 1000}, {"id": 1667377095, "name": "St. Johann Apotheke", "amenity": "pharmacy", "lat": 47.5644741, "lon": 7.5838729, "radius": 1000}, {"id": 1668864827, "name": "Café Siesta", "amenity": "cafe", "lat": 47.5690053, "lon": 7.5965148, "radius": 1000}, {"id": 1668864832, "name": "Musical Bar", "amenity": "pub", "lat": 47.5690036, "lon": 7.5973736, "radius": 1000}, {"id": 1769276555, "name": "Royal Grill", "amenity": "fast_food", "lat": 47.5668682, "lon": 7.5953324, "radius": 1000}, {"id": 1936085288, "name": "Henry's", "amenity": "bar", "lat": 47.5627057, "lon": 7.5912762, "radius": 1000}, {"id": 2074770492, "name": "Bar Les Trois Rois", "amenity": "bar", "lat": 47.5603089, "lon": 7.5877843, "radius": 1000}, {"id": 2381403698, "name": "Café frühling", "amenity": "cafe", "lat": 47.5677589, "lon": 7.5903535, "radius": 1000}, {"id": 2434405556, "name": "BaRquette", "amenity": "cafe", "lat": 47.5734801, "lon": 7.5781155, "radius": 1000}, {"id": 2434405564, "name": "Cafe", "amenity": "cafe", "lat": 47.5745192, "lon": 7.5778831, "radius": 1000}, {"id": 2434405567, "name": "Campus Apotheke", "amenity": "pharmacy", "lat": 47.5735287, "lon": 7.579618, "radius": 1000}, {"id": 2434405622, "name": "Osteria Dodici", "amenity": "restaurant", "lat": 47.5737076, "lon": 7.5793775, "radius": 1000}, {"id": 2434405628, "name": "Personalrestaurant", "amenity": "restaurant", "lat": 47.5746099, "lon": 7.5783102, "radius": 1000}, {"id": 2434407273, "name": "n/a", "amenity": "atm", "lat": 47.574307, "lon": 7.5779922, "radius": 1000}, {"id": 2434407311, "name": "n/a", "amenity": "atm", "lat": 47.5742848, "lon": 7.5780077, "radius": 1000}, {"id": 2434407887, "name": "Restaurant Choice", "amenity": "restaurant", "lat": 47.573967, "lon": 7.5791413, "radius": 1000}, {"id": 2434407890, "name": "Restaurant Cloud", "amenity": "restaurant", "lat": 47.5740444, "lon": 7.5785507, "radius": 1000}, {"id": 2434407893, "name": "Starbucks", "amenity": "cafe", "lat": 47.5723622, "lon": 7.5803362, "radius": 1000}, {"id": 2434407896, "name": "Snack Corner", "amenity": "restaurant", "lat": 47.5734024, "lon": 7.5809331, "radius": 1000}, {"id": 2434407899, "name": "Kiosk", "amenity": "restaurant", "lat": 47.5748146, "lon": 7.5781215, "radius": 1000}, {"id": 2434407900, "name": "Visitors' café", "amenity": "cafe", "lat": 47.5729464, "lon": 7.5804932, "radius": 1000}, {"id": 2434421992, "name": "Kiosk", "amenity": "restaurant", "lat": 47.5713407, "lon": 7.5877225, "radius": 1000}, {"id": 2559593325, "name": "Efringerhof", "amenity": "restaurant", "lat": 47.5673371, "lon": 7.5963892, "radius": 1000}, {"id": 2609287302, "name": "UB Medizin", "amenity": "library", "lat": 47.560048, "lon": 7.5871287, "radius": 1000}, {"id": 2616015642, "name": "Vogesenstube", "amenity": "restaurant", "lat": 47.5688305, "lon": 7.5795549, "radius": 1000}, {"id": 2616015647, "name": "Bistro Munarts", "amenity": "restaurant", "lat": 47.5693206, "lon": 7.5791429, "radius": 1000}, {"id": 2616020991, "name": "Pizza Point", "amenity": "restaurant", "lat": 47.5684632, "lon": 7.5802632, "radius": 1000}, {"id": 2616596286, "name": "Europa Apotheke", "amenity": "pharmacy", "lat": 47.5695378, "lon": 7.5792118, "radius": 1000}, {"id": 2663868065, "name": "Volta Pizza & Kebap Haus", "amenity": "fast_food", "lat": 47.5683075, "lon": 7.5800741, "radius": 1000}, {"id": 2663868078, "name": "Humor Labor Pello", "amenity": "restaurant", "lat": 47.5669753, "lon": 7.5792029, "radius": 1000}, {"id": 2700988691, "name": "24 Stunden Apotheke Basel", "amenity": "pharmacy", "lat": 47.5610509, "lon": 7.5856914, "radius": 1000}, {"id": 2901296694, "name": "Jêle Café", "amenity": "cafe", "lat": 47.5663556, "lon": 7.5758801, "radius": 1000}, {"id": 2901296695, "name": "Nordbahnhof", "amenity": "restaurant", "lat": 47.566457, "lon": 7.5761162, "radius": 1000}, {"id": 2971278565, "name": "n/a", "amenity": "atm", "lat": 47.5612665, "lon": 7.5934854, "radius": 1000}, {"id": 2971278566, "name": "n/a", "amenity": "atm", "lat": 47.5623556, "lon": 7.5941072, "radius": 1000}, {"id": 2971278567, "name": "n/a", "amenity": "atm", "lat": 47.5623902, "lon": 7.5941275, "radius": 1000}, {"id": 2971278569, "name": "n/a", "amenity": "atm", "lat": 47.568672, "lon": 7.5897794, "radius": 1000}, {"id": 2971278570, "name": "n/a", "amenity": "atm", "lat": 47.5711378, "lon": 7.5774614, "radius": 1000}, {"id": 2984213160, "name": "Oetlinger-Buvette", "amenity": "bar", "lat": 47.5670666, "lon": 7.58652, "radius": 1000}, {"id": 2984329486, "name": "Volkshaus Basel", "amenity": "bar", "lat": 47.5610858, "lon": 7.5936202, "radius": 1000}, {"id": 2987527171, "name": "KABAR", "amenity": "bar", "lat": 47.5636143, "lon": 7.5908456, "radius": 1000}, {"id": 3077292533, "name": "Tapeo Tapas Bar La Terraza", "amenity": "restaurant", "lat": 47.566436, "lon": 7.597422, "radius": 1000}, {"id": 3207784678, "name": "Musical Grill", "amenity": "fast_food", "lat": 47.5687224, "lon": 7.597405, "radius": 1000}, {"id": 3207784739, "name": "Rössli", "amenity": "restaurant", "lat": 47.5700863, "lon": 7.596641, "radius": 1000}, {"id": 3207784771, "name": "Thai Café", "amenity": "restaurant", "lat": 47.5698504, "lon": 7.5973694, "radius": 1000}, {"id": 3207784808, "name": "Nordbar", "amenity": "bar", "lat": 47.5704484, "lon": 7.5955243, "radius": 1000}, {"id": 3207784844, "name": "Che que lomo", "amenity": "restaurant", "lat": 47.5705566, "lon": 7.594893, "radius": 1000}, {"id": 3207784886, "name": "GGG Stadtbibliothek Bläsi", "amenity": "library", "lat": 47.5687038, "lon": 7.591119, "radius": 1000}, {"id": 3207784899, "name": "Habesha", "amenity": "restaurant", "lat": 47.5701487, "lon": 7.596197, "radius": 1000}, {"id": 3208776967, "name": "8Bar", "amenity": "pub", "lat": 47.5603488, "lon": 7.5916665, "radius": 1000}, {"id": 3208777028, "name": "Urban Greek", "amenity": "restaurant", "lat": 47.5658332, "lon": 7.5956113, "radius": 1000}, {"id": 3208777122, "name": "Brauerzunft", "amenity": "restaurant", "lat": 47.5604591, "lon": 7.5917922, "radius": 1000}, {"id": 3208777203, "name": "Consum", "amenity": "bar", "lat": 47.5602389, "lon": 7.5920448, "radius": 1000}, {"id": 3208777648, "name": "Dönerstop", "amenity": "fast_food", "lat": 47.5617299, "lon": 7.5929437, "radius": 1000}, {"id": 3208777742, "name": "Lu", "amenity": "fast_food", "lat": 47.5662885, "lon": 7.5918563, "radius": 1000}, {"id": 3220396501, "name": "Carambolage", "amenity": "bar", "lat": 47.5683278, "lon": 7.6004231, "radius": 1000}, {"id": 3728369338, "name": "Nua", "amenity": "restaurant", "lat": 47.5660088, "lon": 7.5975782, "radius": 1000}, {"id": 3751874033, "name": "Vegitat", "amenity": "fast_food", "lat": 47.5656938, "lon": 7.5913352, "radius": 1000}, {"id": 3758773688, "name": "La Fourchette", "amenity": "restaurant", "lat": 47.5680679, "lon": 7.5905993, "radius": 1000}, {"id": 3758796724, "name": "Gemeinsam Café", "amenity": "cafe", "lat": 47.5698858, "lon": 7.5910258, "radius": 1000}, {"id": 3787636235, "name": "kebab Square", "amenity": "fast_food", "lat": 47.5622375, "lon": 7.5945797, "radius": 1000}, {"id": 3888881365, "name": "Le S", "amenity": "restaurant", "lat": 47.5690986, "lon": 7.5993385, "radius": 1000}, {"id": 3888976547, "name": "Matthäus Apotheke", "amenity": "pharmacy", "lat": 47.5688536, "lon": 7.5965248, "radius": 1000}, {"id": 3890667652, "name": "Boo Messeplatz", "amenity": "restaurant", "lat": 47.5642735, "lon": 7.5983857, "radius": 1000}, {"id": 3890667961, "name": "CaPuccini", "amenity": "cafe", "lat": 47.5629082, "lon": 7.597009, "radius": 1000}, {"id": 3901556434, "name": "zem alte Schluuch", "amenity": "restaurant", "lat": 47.5608684, "lon": 7.5915059, "radius": 1000}, {"id": 3972102127, "name": "Friends Bar", "amenity": "bar", "lat": 47.5663064, "lon": 7.5907055, "radius": 1000}, {"id": 4031043644, "name": "Café Bar Rosenkranz", "amenity": "cafe", "lat": 47.5634301, "lon": 7.5762712, "radius": 1000}, {"id": 4031071830, "name": "Trattoria Bar Da Sonny", "amenity": "restaurant", "lat": 47.5680565, "lon": 7.5763815, "radius": 1000}, {"id": 4031079476, "name": "The Kitchen Focacceria", "amenity": "fast_food", "lat": 47.5684475, "lon": 7.5796802, "radius": 1000}, {"id": 4031085803, "name": "Vegitat", "amenity": "fast_food", "lat": 47.5682433, "lon": 7.5801469, "radius": 1000}, {"id": 4031088875, "name": "Volta Bräu", "amenity": "bar", "lat": 47.5709666, "lon": 7.5795463, "radius": 1000}, {"id": 4031101008, "name": "Escape Bar", "amenity": "bar", "lat": 47.5704112, "lon": 7.5780681, "radius": 1000}, {"id": 4064658548, "name": "Valentino's Place", "amenity": "restaurant", "lat": 47.5658489, "lon": 7.590881, "radius": 1000}, {"id": 4064658549, "name": "Flore", "amenity": "bar", "lat": 47.5648065, "lon": 7.5912772, "radius": 1000}, {"id": 4064660679, "name": "Didi Offensiv - Fussballkulturbar", "amenity": "bar", "lat": 47.5656871, "lon": 7.5893309, "radius": 1000}, {"id": 4144545589, "name": "Lily's", "amenity": "restaurant", "lat": 47.5612047, "lon": 7.5940058, "radius": 1000}, {"id": 4150413389, "name": "Basso", "amenity": "restaurant", "lat": 47.5734205, "lon": 7.5834511, "radius": 1000}, {"id": 4166045869, "name": "Internetcafé Planet13", "amenity": "cafe", "lat": 47.56559, "lon": 7.5913444, "radius": 1000}, {"id": 4264494738, "name": "Johanniter Café - Bar", "amenity": "bar", "lat": 47.5645288, "lon": 7.5834065, "radius": 1000}, {"id": 4273041689, "name": "Zur Mägd", "amenity": "restaurant", "lat": 47.5638092, "lon": 7.5841218, "radius": 1000}, {"id": 4371220437, "name": "Flora Buvette", "amenity": "fast_food", "lat": 47.5638697, "lon": 7.5879839, "radius": 1000}, {"id": 4377182496, "name": "New Bombay am Rhein", "amenity": "restaurant", "lat": 47.5616693, "lon": 7.5861934, "radius": 1000}, {"id": 4377355190, "name": "Sri Veda", "amenity": "restaurant", "lat": 47.564904, "lon": 7.5835395, "radius": 1000}, {"id": 4377355191, "name": "Rhy Imbiss", "amenity": "restaurant", "lat": 47.5644225, "lon": 7.5834944, "radius": 1000}, {"id": 4377355289, "name": "Somara", "amenity": "fast_food", "lat": 47.5643678, "lon": 7.5835345, "radius": 1000}, {"id": 4377359796, "name": "Ackermannshof", "amenity": "restaurant", "lat": 47.5631097, "lon": 7.5846236, "radius": 1000}, {"id": 4417769694, "name": "Portofino Basel", "amenity": "restaurant", "lat": 47.5610761, "lon": 7.5871271, "radius": 1000}, {"id": 4447974700, "name": "LoLa", "amenity": "restaurant", "lat": 47.5684242, "lon": 7.5771542, "radius": 1000}, {"id": 4601259258, "name": "Zuggerbegg Bubeck", "amenity": "cafe", "lat": 47.5625028, "lon": 7.5966029, "radius": 1000}, {"id": 4601267408, "name": "Zum Schmale Wurf", "amenity": "restaurant", "lat": 47.5602748, "lon": 7.5916791, "radius": 1000}, {"id": 4665834588, "name": "Astro Fries", "amenity": "fast_food", "lat": 47.5664318, "lon": 7.5925697, "radius": 1000}, {"id": 4701573904, "name": "Roter Bären", "amenity": "restaurant", "lat": 47.5616814, "lon": 7.5915271, "radius": 1000}, {"id": 4714567615, "name": "SMUK Café Bar", "amenity": "cafe", "lat": 47.567226, "lon": 7.5958963, "radius": 1000}, {"id": 4749555721, "name": "Avant-Gouz", "amenity": "restaurant", "lat": 47.5677168, "lon": 7.5948728, "radius": 1000}, {"id": 4895556124, "name": "RENÉE", "amenity": "bar", "lat": 47.5625934, "lon": 7.5914003, "radius": 1000}, {"id": 4974951772, "name": "Krishna", "amenity": "restaurant", "lat": 47.5681757, "lon": 7.580543, "radius": 1000}, {"id": 4975887622, "name": "MamaEat", "amenity": "fast_food", "lat": 47.5636831, "lon": 7.5825906, "radius": 1000}, {"id": 5001393667, "name": "Grand Café Bar", "amenity": "cafe", "lat": 47.5619853, "lon": 7.5952695, "radius": 1000}, {"id": 5016417015, "name": "RhyWyera", "amenity": "restaurant", "lat": 47.561092, "lon": 7.5905972, "radius": 1000}, {"id": 5130247921, "name": "Klara", "amenity": "fast_food", "lat": 47.562429, "lon": 7.5955042, "radius": 1000}, {"id": 5157189624, "name": "Indian Tandoori Palace", "amenity": "restaurant", "lat": 47.5598263, "lon": 7.5848809, "radius": 1000}, {"id": 5157189625, "name": "ZA ZAA - Libanesisches Restaurant", "amenity": "restaurant", "lat": 47.5603036, "lon": 7.5851995, "radius": 1000}, {"id": 5248674577, "name": "Grenzwert", "amenity": "bar", "lat": 47.5618747, "lon": 7.5915805, "radius": 1000}, {"id": 5419675922, "name": "Grotto", "amenity": "bar", "lat": 47.5621814, "lon": 7.5917655, "radius": 1000}, {"id": 5419683121, "name": "Muusfalle", "amenity": "bar", "lat": 47.5621534, "lon": 7.5916868, "radius": 1000}, {"id": 5419684821, "name": "Captain Cook Bar", "amenity": "bar", "lat": 47.562287, "lon": 7.5914878, "radius": 1000}, {"id": 5426983920, "name": "roots", "amenity": "restaurant", "lat": 47.56981, "lon": 7.5830455, "radius": 1000}, {"id": 5477492770, "name": "Zum Eck", "amenity": "bar", "lat": 47.5633475, "lon": 7.5830139, "radius": 1000}, {"id": 5698898524, "name": "Centro USB", "amenity": "restaurant", "lat": 47.5615953, "lon": 7.581705, "radius": 1000}, {"id": 5698904086, "name": "Centrino USB", "amenity": "cafe", "lat": 47.5615943, "lon": 7.5818416, "radius": 1000}, {"id": 5698913601, "name": "Giardino USB", "amenity": "cafe", "lat": 47.5621303, "lon": 7.583033, "radius": 1000}, {"id": 5744291513, "name": "Frozen Yogurt", "amenity": "cafe", "lat": 47.5601064, "lon": 7.5874944, "radius": 1000}, {"id": 5744291515, "name": "Confiserie Bachmann", "amenity": "cafe", "lat": 47.5600105, "lon": 7.5875668, "radius": 1000}, {"id": 5744306322, "name": "Pizzeria Fiorentina", "amenity": "restaurant", "lat": 47.560758, "lon": 7.5873603, "radius": 1000}, {"id": 5790356611, "name": "UBS", "amenity": "bank", "lat": 47.5743847, "lon": 7.5789412, "radius": 1000}, {"id": 5820380004, "name": "Löwenapotheke", "amenity": "pharmacy", "lat": 47.5609333, "lon": 7.5917459, "radius": 1000}, {"id": 6056389765, "name": "Bity Crypto ATM", "amenity": "atm", "lat": 47.5627511, "lon": 7.5923442, "radius": 1000}, {"id": 6133118090, "name": "Stadtkeller", "amenity": "restaurant", "lat": 47.559447, "lon": 7.5875448, "radius": 1000}, {"id": 6239202286, "name": "Magical Cafe", "amenity": "cafe", "lat": 47.5699745, "lon": 7.5993614, "radius": 1000}, {"id": 6318613814, "name": "Ufer7", "amenity": "restaurant", "lat": 47.5610452, "lon": 7.5906378, "radius": 1000}, {"id": 6388624275, "name": "LA", "amenity": "restaurant", "lat": 47.5628093, "lon": 7.5848459, "radius": 1000}, {"id": 6780075813, "name": "Saner Apotheke", "amenity": "pharmacy", "lat": 47.5610331, "lon": 7.5920108, "radius": 1000}, {"id": 6780081106, "name": "Greifen Apotheke", "amenity": "pharmacy", "lat": 47.5621355, "lon": 7.5930825, "radius": 1000}, {"id": 6780094234, "name": "n/a", "amenity": "atm", "lat": 47.5661075, "lon": 7.5909485, "radius": 1000}, {"id": 6868688829, "name": "Barfly", "amenity": "bar", "lat": 47.5627654, "lon": 7.584874, "radius": 1000}, {"id": 6923434369, "name": "Zum Johann", "amenity": "bar", "lat": 47.5676265, "lon": 7.5807154, "radius": 1000}, {"id": 6954999086, "name": "Taverne Johann", "amenity": "restaurant", "lat": 47.5650038, "lon": 7.5782226, "radius": 1000}, {"id": 6958402189, "name": "Locanda", "amenity": "bar", "lat": 47.564069, "lon": 7.5977405, "radius": 1000}, {"id": 7003029881, "name": "Casa Piccola Italia", "amenity": "restaurant", "lat": 47.570009, "lon": 7.5974416, "radius": 1000}, {"id": 7261553186, "name": "Pink Pizza", "amenity": "fast_food", "lat": 47.576299, "lon": 7.5888736, "radius": 1000}, {"id": 7450557434, "name": "Manora", "amenity": "restaurant", "lat": 47.5610983, "lon": 7.592742, "radius": 1000}, {"id": 7450557435, "name": "Starbucks Claraplatz", "amenity": "cafe", "lat": 47.5614183, "lon": 7.5932853, "radius": 1000}, {"id": 7465675393, "name": "Zur Rose", "amenity": "pharmacy", "lat": 47.56163, "lon": 7.5920695, "radius": 1000}, {"id": 7483122924, "name": "Amavita Rheinbrücke", "amenity": "pharmacy", "lat": 47.561403, "lon": 7.5922099, "radius": 1000}, {"id": 7486388780, "name": "Medbase Apotheke Vogesen", "amenity": "pharmacy", "lat": 47.568252, "lon": 7.5792322, "radius": 1000}, {"id": 7529438648, "name": "Burger Meister", "amenity": "fast_food", "lat": 47.5620203, "lon": 7.593601, "radius": 1000}, {"id": 7554138216, "name": "Dunkin'", "amenity": "fast_food", "lat": 47.5613474, "lon": 7.5921901, "radius": 1000}, {"id": 7572625269, "name": "Bank-now", "amenity": "bank", "lat": 47.5624781, "lon": 7.5957236, "radius": 1000}, {"id": 7673740691, "name": "Migros Restaurant", "amenity": "restaurant", "lat": 47.5618305, "lon": 7.5925019, "radius": 1000}, {"id": 7683239068, "name": "VITO Klybeck", "amenity": "restaurant", "lat": 47.5672076, "lon": 7.5908596, "radius": 1000}, {"id": 7683254632, "name": "Fujin Sushi bar", "amenity": "restaurant", "lat": 47.567279, "lon": 7.5908338, "radius": 1000}, {"id": 7747174184, "name": "Pizzeria Da Pia", "amenity": "restaurant", "lat": 47.5709099, "lon": 7.5920312, "radius": 1000}, {"id": 7747207685, "name": "Drei Rosen", "amenity": "restaurant", "lat": 47.570532, "lon": 7.5905079, "radius": 1000}, {"id": 7773338162, "name": "OFF", "amenity": "bar", "lat": 47.5693615, "lon": 7.5899974, "radius": 1000}, {"id": 7778233544, "name": "BrauBudeBasel", "amenity": "bar", "lat": 47.567672, "lon": 7.5918704, "radius": 1000}, {"id": 7784095493, "name": "Globâle", "amenity": "restaurant", "lat": 47.562871, "lon": 7.5937258, "radius": 1000}, {"id": 7784095495, "name": "Whisky Bar", "amenity": "cafe", "lat": 47.5647535, "lon": 7.592706, "radius": 1000}, {"id": 7784095496, "name": "Concordia", "amenity": "restaurant", "lat": 47.5655363, "lon": 7.5920557, "radius": 1000}, {"id": 7784095498, "name": "Rouine", "amenity": "bar", "lat": 47.5666217, "lon": 7.5924914, "radius": 1000}, {"id": 7784095499, "name": "Hammer Apotheke", "amenity": "pharmacy", "lat": 47.567587, "lon": 7.5952345, "radius": 1000}, {"id": 7784095500, "name": "pusat cafe bar", "amenity": "bar", "lat": 47.5678995, "lon": 7.5948047, "radius": 1000}, {"id": 7784409617, "name": "Star Grill", "amenity": "fast_food", "lat": 47.5627955, "lon": 7.5919442, "radius": 1000}, {"id": 7806623582, "name": "Hoffmann's Bagel", "amenity": "fast_food", "lat": 47.5671995, "lon": 7.596898, "radius": 1000}, {"id": 7806623584, "name": "Pandarosa", "amenity": "restaurant", "lat": 47.5644099, "lon": 7.5984284, "radius": 1000}, {"id": 7806657986, "name": "Lyz Bar & Lounge", "amenity": "bar", "lat": 47.5702979, "lon": 7.5782148, "radius": 1000}, {"id": 7809972322, "name": "Boo", "amenity": "restaurant", "lat": 47.5670345, "lon": 7.5909027, "radius": 1000}, {"id": 7809972323, "name": "The Kebab Factory", "amenity": "fast_food", "lat": 47.5680175, "lon": 7.5903641, "radius": 1000}, {"id": 7809972326, "name": "Savanna", "amenity": "restaurant", "lat": 47.5692168, "lon": 7.5912968, "radius": 1000}, {"id": 7871792488, "name": "Du Pont", "amenity": "restaurant", "lat": 47.560565, "lon": 7.5910314, "radius": 1000}, {"id": 7995309310, "name": "Pizza Picassso", "amenity": "restaurant", "lat": 47.5694979, "lon": 7.5901783, "radius": 1000}, {"id": 8010710188, "name": "Chanthaburi", "amenity": "restaurant", "lat": 47.56648, "lon": 7.5916548, "radius": 1000}, {"id": 8012279898, "name": "Sultan Saray", "amenity": "fast_food", "lat": 47.5664562, "lon": 7.5914046, "radius": 1000}, {"id": 8012279900, "name": "VeggEast", "amenity": "fast_food", "lat": 47.565946, "lon": 7.5897567, "radius": 1000}, {"id": 8041311738, "name": "Ta Cave", "amenity": "bar", "lat": 47.5624283, "lon": 7.5909908, "radius": 1000}, {"id": 8063487485, "name": "Herz", "amenity": "bar", "lat": 47.5623438, "lon": 7.5953325, "radius": 1000}, {"id": 8126685107, "name": "Primarschulhaus Erlenmatt", "amenity": "school", "lat": 47.5689989, "lon": 7.6004078, "radius": 1000}, {"id": 8143805822, "name": "Nordtangente Sportsbar", "amenity": "pub", "lat": 47.5696025, "lon": 7.5755884, "radius": 1000}, {"id": 8500247484, "name": "Pizzeria La Perla", "amenity": "restaurant", "lat": 47.5653483, "lon": 7.595655, "radius": 1000}, {"id": 8537314356, "name": "Sottosopra", "amenity": "restaurant", "lat": 47.5622551, "lon": 7.595159, "radius": 1000}, {"id": 8729246504, "name": "Clarahuus", "amenity": "parking", "lat": 47.5622393, "lon": 7.5921052, "radius": 1000}, {"id": 8806220782, "name": "Dreirosen Apotheke", "amenity": "pharmacy", "lat": 47.5689793, "lon": 7.5906307, "radius": 1000}, {"id": 8909393066, "name": "PaSiWo", "amenity": "restaurant", "lat": 47.5633469, "lon": 7.5921254, "radius": 1000}, {"id": 8909431468, "name": "Finkmüller", "amenity": "cafe", "lat": 47.5658557, "lon": 7.5912746, "radius": 1000}, {"id": 8911103620, "name": "Mezzo", "amenity": "restaurant", "lat": 47.5685381, "lon": 7.5804652, "radius": 1000}, {"id": 8990082842, "name": "Basler Kebabhaus", "amenity": "fast_food", "lat": 47.5636317, "lon": 7.5962772, "radius": 1000}, {"id": 9006190876, "name": "The Auld Dubliner", "amenity": "pub", "lat": 47.5627362, "lon": 7.5973019, "radius": 1000}, {"id": 9006466009, "name": "Küsne Kebab", "amenity": "fast_food", "lat": 47.5620904, "lon": 7.5931393, "radius": 1000}, {"id": 9006499388, "name": "Clarastübli", "amenity": "restaurant", "lat": 47.5626048, "lon": 7.5962248, "radius": 1000}, {"id": 9007960432, "name": "Pizza Maestro", "amenity": "fast_food", "lat": 47.5656888, "lon": 7.5878454, "radius": 1000}, {"id": 9274893539, "name": "Verde", "amenity": "restaurant", "lat": 47.562012, "lon": 7.595332, "radius": 1000}, {"id": 9350106079, "name": "Empanadas", "amenity": "restaurant", "lat": 47.5629072, "lon": 7.5918759, "radius": 1000}, {"id": 9350906407, "name": "Three Ladies", "amenity": "cafe", "lat": 47.5621986, "lon": 7.5856935, "radius": 1000}, {"id": 9381403405, "name": "Rhyschänzli", "amenity": "restaurant", "lat": 47.5720882, "lon": 7.5776656, "radius": 1000}, {"id": 9381876059, "name": "Cafe St. Johan", "amenity": "cafe", "lat": 47.5685235, "lon": 7.5798515, "radius": 1000}, {"id": 9381912099, "name": "Lotus Garden", "amenity": "restaurant", "lat": 47.5665142, "lon": 7.5808066, "radius": 1000}, {"id": 9482868955, "name": "Detto Pronto", "amenity": "fast_food", "lat": 47.5705037, "lon": 7.5952502, "radius": 1000}, {"id": 9748222017, "name": "Aktienmühle", "amenity": "cafe", "lat": 47.5759624, "lon": 7.5913195, "radius": 1000}, {"id": 9832402717, "name": "Restaurant Thai Family", "amenity": "restaurant", "lat": 47.5630636, "lon": 7.5964143, "radius": 1000}, {"id": 9880875589, "name": "n/a", "amenity": "atm", "lat": 47.5624821, "lon": 7.5832677, "radius": 1000}, {"id": 9905309814, "name": "Choi Asian Garden", "amenity": "restaurant", "lat": 47.5658897, "lon": 7.5886535, "radius": 1000}, {"id": 9932434117, "name": "The Siam Delicious", "amenity": "fast_food", "lat": 47.5662091, "lon": 7.5912098, "radius": 1000}, {"id": 10002231723, "name": "n/a", "amenity": "parking", "lat": 47.5640107, "lon": 7.5817884, "radius": 1000}, {"id": 10002233136, "name": "n/a", "amenity": "parking", "lat": 47.5641071, "lon": 7.5821849, "radius": 1000}, {"id": 10004623701, "name": "Castel Rosso", "amenity": "restaurant", "lat": 47.5609622, "lon": 7.5942114, "radius": 1000}, {"id": 10031814189, "name": "Singh Indische Spezialitäten", "amenity": "restaurant", "lat": 47.5659985, "lon": 7.588767, "radius": 1000}, {"id": 10031814202, "name": "Multi Kitchen Markthalle Feldberg", "amenity": "fast_food", "lat": 47.5656705, "lon": 7.5877496, "radius": 1000}, {"id": 10031814204, "name": "Messo Burger", "amenity": "fast_food", "lat": 47.5656439, "lon": 7.5876608, "radius": 1000}, {"id": 10031838986, "name": "walther bistrobar", "amenity": "restaurant", "lat": 47.5629813, "lon": 7.5890317, "radius": 1000}, {"id": 10031838987, "name": "Bar Amber", "amenity": "bar", "lat": 47.5623417, "lon": 7.5895046, "radius": 1000}, {"id": 10103183992, "name": "MOiDA", "amenity": "restaurant", "lat": 47.5719335, "lon": 7.5771136, "radius": 1000}, {"id": 10114569528, "name": "Café Bar Treffpunkt", "amenity": "bar", "lat": 47.5692057, "lon": 7.5795769, "radius": 1000}, {"id": 10114569529, "name": "Libelle", "amenity": "restaurant", "lat": 47.5706283, "lon": 7.57748, "radius": 1000}, {"id": 10288188203, "name": "Grenzwert", "amenity": "bar", "lat": 47.5618775, "lon": 7.5916103, "radius": 1000}, {"id": 10606713507, "name": "Lu", "amenity": "fast_food", "lat": 47.5663068, "lon": 7.5918813, "radius": 1000}, {"id": 10736299805, "name": "n/a", "amenity": "restaurant", "lat": 47.567018, "lon": 7.5792944, "radius": 1000}, {"id": 10791215705, "name": "Humor Labor Pello", "amenity": "restaurant", "lat": 47.5669191, "lon": 7.5791756, "radius": 1000}, {"id": 10837881905, "name": "Burgermeister", "amenity": "fast_food", "lat": 47.5620296, "lon": 7.5937789, "radius": 1000}, {"id": 10884236353, "name": "Fass Bar", "amenity": "pub", "lat": 47.5657565, "lon": 7.5956208, "radius": 1000}, {"id": 10935222399, "name": "Johanniter", "amenity": "restaurant", "lat": 47.5687887, "lon": 7.5815176, "radius": 1000}, {"id": 11413486821, "name": "Brasserie", "amenity": "restaurant", "lat": 47.5604879, "lon": 7.5877111, "radius": 1000}, {"id": 11413486822, "name": "Le Cheval Blanc", "amenity": "restaurant", "lat": 47.5605777, "lon": 7.5875977, "radius": 1000}, {"id": 11427348301, "name": "Pizza Pronta", "amenity": "fast_food", "lat": 47.5682571, "lon": 7.5798928, "radius": 1000}, {"id": 11770989356, "name": "Burek King", "amenity": "fast_food", "lat": 47.562112, "lon": 7.5939893, "radius": 1000}, {"id": 11876754508, "name": "daniska", "amenity": "cafe", "lat": 47.5654942, "lon": 7.5880503, "radius": 1000}, {"id": 12000710869, "name": "Chanthabury", "amenity": "restaurant", "lat": 47.566474, "lon": 7.5916367, "radius": 1000}, {"id": 12017251394, "name": "Saint Louis Buvette", "amenity": "restaurant", "lat": 47.5669332, "lon": 7.5831382, "radius": 1000}, {"id": 12218087775, "name": "Academia International", "amenity": "school", "lat": 47.5595737, "lon": 7.5876987, "radius": 1000}, {"id": 12374353061, "name": "Värdex Crypto ATM", "amenity": "atm", "lat": 47.5710044, "lon": 7.5768627, "radius": 1000}, {"id": 12374357989, "name": "Värdex Crypto ATM", "amenity": "atm", "lat": 47.5661956, "lon": 7.5900746, "radius": 1000}]}
{"address": "Erlenmattstr. 75, 4058 Basel", "price": 2880, "property_id": 4002039809, "area": "115m²", "rooms": 4.5, "lat": 47.5705088, "lon": 7.6031744, "amenities": [{"id": 71525550, "name": "Restaurant Zum Wilde Maa", "amenity": "restaurant", "lat": 47.5679494, "lon": 7.595093, "radius": 1000}, {"id": 71525553, "name": "Firenze", "amenity": "restaurant", "lat": 47.5692427, "lon": 7.5944428, "radius": 1000}, {"id": 71525557, "name": "Kiki Bar", "amenity": "pub", "lat": 47.5692456, "lon": 7.5941997, "radius": 1000}, {"id": 71525563, "name": "Cloves", "amenity": "restaurant", "lat": 47.5692033, "lon": 7.5913551, "radius": 1000}, {"id": 71525570, "name": "Senat Maki's", "amenity": "cafe", "lat": 47.5692456, "lon": 7.5938822, "radius": 1000}, {"id": 71525579, "name": "DejaVu", "amenity": "pub", "lat": 47.5694062, "lon": 7.5901309, "radius": 1000}, {"id": 71525588, "name": "Pizzeria Breisacherhof", "amenity": "restaurant", "lat": 47.5698877, "lon": 7.5916214, "radius": 1000}, {"id": 71525611, "name": "Gatto Nero", "amenity": "restaurant", "lat": 47.5677788, "lon": 7.5906834, "radius": 1000}, {"id": 75940582, "name": "Zum Goldenen Fass", "amenity": "restaurant", "lat": 47.5656669, "lon": 7.5956372, "radius": 1000}, {"id": 75940590, "name": "Europe", "amenity": "parking", "lat": 47.5632757, "lon": 7.5968304, "radius": 1000}, {"id": 122336608, "name": "Delfin", "amenity": "restaurant", "lat": 47.5665578, "lon": 7.5917694, "radius": 1000}, {"id": 138310840, "name": "Brombi", "amenity": "restaurant", "lat": 47.5705197, "lon": 7.5962519, "radius": 1000}, {"id": 254097107, "name": "Da Graziella", "amenity": "cafe", "lat": 47.5664559, "lon": 7.5928691, "radius": 1000}, {"id": 262502093, "name": "Acero", "amenity": "cafe", "lat": 47.5659948, "lon": 7.5941398, "radius": 1000}, {"id": 266810611, "name": "Zur Schwarzen Kunst", "amenity": "restaurant", "lat": 47.5761915, "lon": 7.5974297, "radius": 1000}, {"id": 273223637, "name": "Vogelsangschulhaus", "amenity": "school", "lat": 47.5633774, "lon": 7.6084402, "radius": 1000}, {"id": 276546395, "name": "n/a", "amenity": "parking", "lat": 47.5698379, "lon": 7.6131159, "radius": 1000}, {"id": 315128008, "name": "Sport Pub Milan", "amenity": "pub", "lat": 47.5689609, "lon": 7.5948146, "radius": 1000}, {"id": 493149217, "name": "Basler Kantonalbank", "amenity": "bank", "lat": 47.5664339, "lon": 7.6066374, "radius": 1000}, {"id": 529593919, "name": "Maulbeergrill", "amenity": "fast_food", "lat": 47.5676143, "lon": 7.6023449, "radius": 1000}, {"id": 585046279, "name": "Didi Bar", "amenity": "cafe", "lat": 47.5656436, "lon": 7.5934442, "radius": 1000}, {"id": 585047863, "name": "Saint Tropez", "amenity": "cafe", "lat": 47.5651584, "lon": 7.5940531, "radius": 1000}, {"id": 586277088, "name": "Punta Cana", "amenity": "restaurant", "lat": 47.5633753, "lon": 7.5962178, "radius": 1000}, {"id": 586281979, "name": "Bali", "amenity": "restaurant", "lat": 47.5627493, "lon": 7.5966598, "radius": 1000}, {"id": 586282496, "name": "Coop Vitality", "amenity": "pharmacy", "lat": 47.5629845, "lon": 7.5973118, "radius": 1000}, {"id": 590051414, "name": "Thai Family", "amenity": "restaurant", "lat": 47.5653158, "lon": 7.605048, "radius": 1000}, {"id": 590084594, "name": "Hong Kong", "amenity": "restaurant", "lat": 47.5651063, "lon": 7.5981445, "radius": 1000}, {"id": 592182051, "name": "Café Charlotte", "amenity": "cafe", "lat": 47.5648516, "lon": 7.6033861, "radius": 1000}, {"id": 796765566, "name": "Isbilir", "amenity": "fast_food", "lat": 47.5671452, "lon": 7.5952952, "radius": 1000}, {"id": 1028007577, "name": "Antik Café Bar", "amenity": "cafe", "lat": 47.5690588, "lon": 7.5902334, "radius": 1000}, {"id": 1385293549, "name": "n/a", "amenity": "atm", "lat": 47.5662743, "lon": 7.6136237, "radius": 1000}, {"id": 1668864827, "name": "Café Siesta", "amenity": "cafe", "lat": 47.5690053, "lon": 7.5965148, "radius": 1000}, {"id": 1668864832, "name": "Musical Bar", "amenity": "pub", "lat": 47.5690036, "lon": 7.5973736, "radius": 1000}, {"id": 1668865164, "name": "Schule für Gestaltung", "amenity": "school", "lat": 47.5636426, "lon": 7.6062991, "radius": 1000}, {"id": 1769276555, "name": "Royal Grill", "amenity": "fast_food", "lat": 47.5668682, "lon": 7.5953324, "radius": 1000}, {"id": 2549405062, "name": "Basler Kantonalbank", "amenity": "atm", "lat": 47.5638499, "lon": 7.5993087, "radius": 1000}, {"id": 2559593325, "name": "Efringerhof", "amenity": "restaurant", "lat": 47.5673371, "lon": 7.5963892, "radius": 1000}, {"id": 2800631394, "name": "Qbarana Lounge Bar", "amenity": "bar", "lat": 47.5687669, "lon": 7.6018111, "radius": 1000}, {"id": 2812453913, "name": "n/a", "amenity": "parking", "lat": 47.5657978, "lon": 7.6128342, "radius": 1000}, {"id": 3077292533, "name": "Tapeo Tapas Bar La Terraza", "amenity": "restaurant", "lat": 47.566436, "lon": 7.597422, "radius": 1000}, {"id": 3207784678, "name": "Musical Grill", "amenity": "fast_food", "lat": 47.5687224, "lon": 7.597405, "radius": 1000}, {"id": 3207784739, "name": "Rössli", "amenity": "restaurant", "lat": 47.5700863, "lon": 7.596641, "radius": 1000}, {"id": 3207784771, "name": "Thai Café", "amenity": "restaurant", "lat": 47.5698504, "lon": 7.5973694, "radius": 1000}, {"id": 3207784808, "name": "Nordbar", "amenity": "bar", "lat": 47.5704484, "lon": 7.5955243, "radius": 1000}, {"id": 3207784844, "name": "Che que lomo", "amenity": "restaurant", "lat": 47.5705566, "lon": 7.594893, "radius": 1000}, {"id": 3207784886, "name": "GGG Stadtbibliothek Bläsi", "amenity": "library", "lat": 47.5687038, "lon": 7.591119, "radius": 1000}, {"id": 3207784899, "name": "Habesha", "amenity": "restaurant", "lat": 47.5701487, "lon": 7.596197, "radius": 1000}, {"id": 3208777028, "name": "Urban Greek", "amenity": "restaurant", "lat": 47.5658332, "lon": 7.5956113, "radius": 1000}, {"id": 3208777742, "name": "Lu", "amenity": "fast_food", "lat": 47.5662885, "lon": 7.5918563, "radius": 1000}, {"id": 3220396501, "name": "Carambolage", "amenity": "bar", "lat": 47.5683278, "lon": 7.6004231, "radius": 1000}, {"id": 3220397133, "name": "Cafe 360", "amenity": "pub", "lat": 47.5676417, "lon": 7.6024174, "radius": 1000}, {"id": 3220397149, "name": "CHiCKPEA", "amenity": "restaurant", "lat": 47.5673966, "lon": 7.6009155, "radius": 1000}, {"id": 3224586205, "name": "The Chennai Kings", "amenity": "restaurant", "lat": 47.5682478, "lon": 7.6052881, "radius": 1000}, {"id": 3224586250, "name": "Happy Wok", "amenity": "restaurant", "lat": 47.568157, "lon": 7.6054465, "radius": 1000}, {"id": 3728369338, "name": "Nua", "amenity": "restaurant", "lat": 47.5660088, "lon": 7.5975782, "radius": 1000}, {"id": 3758773688, "name": "La Fourchette", "amenity": "restaurant", "lat": 47.5680679, "lon": 7.5905993, "radius": 1000}, {"id": 3758796724, "name": "Gemeinsam Café", "amenity": "cafe", "lat": 47.5698858, "lon": 7.5910258, "radius": 1000}, {"id": 3888881365, "name": "Le S", "amenity": "restaurant", "lat": 47.5690986, "lon": 7.5993385, "radius": 1000}, {"id": 3888976547, "name": "Matthäus Apotheke", "amenity": "pharmacy", "lat": 47.5688536, "lon": 7.5965248, "radius": 1000}, {"id": 3889420248, "name": "Bar Rouge", "amenity": "bar", "lat": 47.5644556, "lon": 7.6019009, "radius": 1000}, {"id": 3890667652, "name": "Boo Messeplatz", "amenity": "restaurant", "lat": 47.5642735, "lon": 7.5983857, "radius": 1000}, {"id": 3890667653, "name": "namamen Japanese Ramenbar Messe", "amenity": "restaurant", "lat": 47.5637483, "lon": 7.5996043, "radius": 1000}, {"id": 3890667654, "name": "Käfer Stube", "amenity": "restaurant", "lat": 47.5634011, "lon": 7.5999219, "radius": 1000}, {"id": 3890667961, "name": "CaPuccini", "amenity": "cafe", "lat": 47.5629082, "lon": 7.597009, "radius": 1000}, {"id": 3900491566, "name": "Heritage", "amenity": "restaurant", "lat": 47.5630151, "lon": 7.5993884, "radius": 1000}, {"id": 3900491567, "name": "n/a", "amenity": "atm", "lat": 47.5638698, "lon": 7.5992961, "radius": 1000}, {"id": 4110058268, "name": "Zytigs-stübli", "amenity": "cafe", "lat": 47.569695, "lon": 7.608954, "radius": 1000}, {"id": 4611892646, "name": "BKB", "amenity": "atm", "lat": 47.5672735, "lon": 7.607176, "radius": 1000}, {"id": 4665834588, "name": "Astro Fries", "amenity": "fast_food", "lat": 47.5664318, "lon": 7.5925697, "radius": 1000}, {"id": 4714567615, "name": "SMUK Café Bar", "amenity": "cafe", "lat": 47.567226, "lon": 7.5958963, "radius": 1000}, {"id": 4749555721, "name": "Avant-Gouz", "amenity": "restaurant", "lat": 47.5677168, "lon": 7.5948728, "radius": 1000}, {"id": 5261023566, "name": "feministische bibliothek @spit", "amenity": "library", "lat": 47.5684445, "lon": 7.6009464, "radius": 1000}, {"id": 5550633691, "name": "Bar du Nord", "amenity": "bar", "lat": 47.568121, "lon": 7.6065499, "radius": 1000}, {"id": 5588337360, "name": "Tiefgarage", "amenity": "parking", "lat": 47.5687073, "lon": 7.6111903, "radius": 1000}, {"id": 5588338976, "name": "Tiefgarage", "amenity": "parking", "lat": 47.5694527, "lon": 7.6105904, "radius": 1000}, {"id": 5588339495, "name": "n/a", "amenity": "parking", "lat": 47.570292, "lon": 7.6121308, "radius": 1000}, {"id": 5588341092, "name": "n/a", "amenity": "parking", "lat": 47.569626, "lon": 7.6139148, "radius": 1000}, {"id": 6239202286, "name": "Magical Cafe", "amenity": "cafe", "lat": 47.5699745, "lon": 7.5993614, "radius": 1000}, {"id": 6253646185, "name": "Zum Backofen", "amenity": "cafe", "lat": 47.5672994, "lon": 7.6110128, "radius": 1000}, {"id": 6389507428, "name": "McDonald's", "amenity": "fast_food", "lat": 47.5665097, "lon": 7.6066263, "radius": 1000}, {"id": 6440662485, "name": "Kaffi ELCH", "amenity": "cafe", "lat": 47.5711139, "lon": 7.6102383, "radius": 1000}, {"id": 6927157603, "name": "Coop Vitality", "amenity": "pharmacy", "lat": 47.5697544, "lon": 7.6036227, "radius": 1000}, {"id": 6958402189, "name": "Locanda", "amenity": "bar", "lat": 47.564069, "lon": 7.5977405, "radius": 1000}, {"id": 7003029881, "name": "Casa Piccola Italia", "amenity": "restaurant", "lat": 47.570009, "lon": 7.5974416, "radius": 1000}, {"id": 7206798585, "name": "Finkmüller Erlenmatt Ost", "amenity": "cafe", "lat": 47.5720995, "lon": 7.6014317, "radius": 1000}, {"id": 7683239068, "name": "VITO Klybeck", "amenity": "restaurant", "lat": 47.5672076, "lon": 7.5908596, "radius": 1000}, {"id": 7683254632, "name": "Fujin Sushi bar", "amenity": "restaurant", "lat": 47.567279, "lon": 7.5908338, "radius": 1000}, {"id": 7747174184, "name": "Pizzeria Da Pia", "amenity": "restaurant", "lat": 47.5709099, "lon": 7.5920312, "radius": 1000}, {"id": 7747207685, "name": "Drei Rosen", "amenity": "restaurant", "lat": 47.570532, "lon": 7.5905079, "radius": 1000}, {"id": 7762245664, "name": "SILO soulfood.", "amenity": "restaurant", "lat": 47.5720403, "lon": 7.6020549, "radius": 1000}, {"id": 7773338159, "name": "Domino's", "amenity": "fast_food", "lat": 47.5620432, "lon": 7.6003286, "radius": 1000}, {"id": 7773338162, "name": "OFF", "amenity": "bar", "lat": 47.5693615, "lon": 7.5899974, "radius": 1000}, {"id": 7778233543, "name": "Matt & Elly Brewery & Kitchen", "amenity": "restaurant", "lat": 47.56969, "lon": 7.6034296, "radius": 1000}, {"id": 7778233544, "name": "BrauBudeBasel", "amenity": "bar", "lat": 47.567672, "lon": 7.5918704, "radius": 1000}, {"id": 7784095498, "name": "Rouine", "amenity": "bar", "lat": 47.5666217, "lon": 7.5924914, "radius": 1000}, {"id": 7784095499, "name": "Hammer Apotheke", "amenity": "pharmacy", "lat": 47.567587, "lon": 7.5952345, "radius": 1000}, {"id": 7784095500, "name": "pusat cafe bar", "amenity": "bar", "lat": 47.5678995, "lon": 7.5948047, "radius": 1000}, {"id": 7806623582, "name": "Hoffmann's Bagel", "amenity": "fast_food", "lat": 47.5671995, "lon": 7.596898, "radius": 1000}, {"id": 7806623584, "name": "Pandarosa", "amenity": "restaurant", "lat": 47.5644099, "lon": 7.5984284, "radius": 1000}, {"id": 7809972322, "name": "Boo", "amenity": "restaurant", "lat": 47.5670345, "lon": 7.5909027, "radius": 1000}, {"id": 7809972323, "name": "The Kebab Factory", "amenity": "fast_food", "lat": 47.5680175, "lon": 7.5903641, "radius": 1000}, {"id": 7809972326, "name": "Savanna", "amenity": "restaurant", "lat": 47.5692168, "lon": 7.5912968, "radius": 1000}, {"id": 7810200918, "name": "OX Cafè Lounge", "amenity": "cafe", "lat": 47.5633705, "lon": 7.5985292, "radius": 1000}, {"id": 7995309310, "name": "Pizza Picassso", "amenity": "restaurant", "lat": 47.5694979, "lon": 7.5901783, "radius": 1000}, {"id": 8001068550, "name": "Anjappar", "amenity": "restaurant", "lat": 47.5660728, "lon": 7.6070988, "radius": 1000}, {"id": 8001068551, "name": "Hirzbrunnen-Apotheke", "amenity": "pharmacy", "lat": 47.5659451, "lon": 7.6072, "radius": 1000}, {"id": 8010710188, "name": "Chanthaburi", "amenity": "restaurant", "lat": 47.56648, "lon": 7.5916548, "radius": 1000}, {"id": 8012279898, "name": "Sultan Saray", "amenity": "fast_food", "lat": 47.5664562, "lon": 7.5914046, "radius": 1000}, {"id": 8125259187, "name": "Quartiertreffpunkt Gleis 58", "amenity": "restaurant", "lat": 47.5721088, "lon": 7.6001771, "radius": 1000}, {"id": 8126685107, "name": "Primarschulhaus Erlenmatt", "amenity": "school", "lat": 47.5689989, "lon": 7.6004078, "radius": 1000}, {"id": 8500247484, "name": "Pizzeria La Perla", "amenity": "restaurant", "lat": 47.5653483, "lon": 7.595655, "radius": 1000}, {"id": 8537314352, "name": "Isbilir Food", "amenity": "fast_food", "lat": 47.5633285, "lon": 7.5984282, "radius": 1000}, {"id": 8806220782, "name": "Dreirosen Apotheke", "amenity": "pharmacy", "lat": 47.5689793, "lon": 7.5906307, "radius": 1000}, {"id": 8990082842, "name": "Basler Kebabhaus", "amenity": "fast_food", "lat": 47.5636317, "lon": 7.5962772, "radius": 1000}, {"id": 9006190876, "name": "The Auld Dubliner", "amenity": "pub", "lat": 47.5627362, "lon": 7.5973019, "radius": 1000}, {"id": 9482868955, "name": "Detto Pronto", "amenity": "fast_food", "lat": 47.5705037, "lon": 7.5952502, "radius": 1000}, {"id": 9832402717, "name": "Restaurant Thai Family", "amenity": "restaurant", "lat": 47.5630636, "lon": 7.5964143, "radius": 1000}, {"id": 10008628400, "name": "Europainstitut der Universität Basel", "amenity": "university", "lat": 47.5647323, "lon": 7.606072, "radius": 1000}, {"id": 10140233773, "name": "ROBA BUONA", "amenity": "restaurant", "lat": 47.5719494, "lon": 7.6016523, "radius": 1000}, {"id": 10290989011, "name": "Che Vuoi", "amenity": "restaurant", "lat": 47.5634916, "lon": 7.5989185, "radius": 1000}, {"id": 10606351034, "name": "Heritage Restaurant", "amenity": "restaurant", "lat": 47.5632622, "lon": 7.5991218, "radius": 1000}, {"id": 10606351035, "name": "DB Gastronomie Betriebsrestaurant", "amenity": "restaurant", "lat": 47.5683186, "lon": 7.6061343, "radius": 1000}, {"id": 10606351037, "name": "Schoren Clubhüüsli", "amenity": "restaurant", "lat": 47.5738596, "lon": 7.6112794, "radius": 1000}, {"id": 10606474213, "name": "Cafe Chiara Claraspital", "amenity": "cafe", "lat": 47.5666708, "lon": 7.6140212, "radius": 1000}, {"id": 10606474214, "name": "ROSA im Park", "amenity": "cafe", "lat": 47.5659024, "lon": 7.6144414, "radius": 1000}, {"id": 10606713507, "name": "Lu", "amenity": "fast_food", "lat": 47.5663068, "lon": 7.5918813, "radius": 1000}, {"id": 10607908166, "name": "Angolo Italiano", "amenity": "restaurant", "lat": 47.5670069, "lon": 7.6009293, "radius": 1000}, {"id": 10608357008, "name": "Kitchen 41", "amenity": "restaurant", "lat": 47.5674377, "lon": 7.6017047, "radius": 1000}, {"id": 10884236353, "name": "Fass Bar", "amenity": "pub", "lat": 47.5657565, "lon": 7.5956208, "radius": 1000}, {"id": 11755443196, "name": "Café 4 you", "amenity": "cafe", "lat": 47.5625982, "lon": 7.6037697, "radius": 1000}, {"id": 12000710869, "name": "Chanthabury", "amenity": "restaurant", "lat": 47.566474, "lon": 7.5916367, "radius": 1000}, {"id": 12361595965, "name": "Universitätsbibliothek Rosental", "amenity": "library", "lat": 47.5669624, "lon": 7.601665, "radius": 1000}, {"id": 12393894853, "name": "Rosental Imbiss Colak kebab", "amenity": "fast_food", "lat": 47.5650047, "lon": 7.6037414, "radius": 1000}]}
{"address": "Käferholzstrasse 60, 8057 Zürich", "price": 2880, "property_id": 4001947102, "area": "115m²", "rooms": 4.5, "lat": 47.402542600000004, "lon": 8.532090116551142, "amenities": [{"id": 105443906, "name": "Gabbiano", "amenity": "restaurant", "lat": 47.409767, "lon": 8.5374793, "radius": 1000}, {"id": 253207101, "name": "Il Postino", "amenity": "restaurant", "lat": 47.400103, "lon": 8.5436425, "radius": 1000}, {"id": 285896841, "name": "Pizza Bros", "amenity": "restaurant", "lat": 47.4097743, "lon": 8.537357, "radius": 1000}, {"id": 304597368, "name": "Hang's", "amenity": "restaurant", "lat": 47.3972052, "lon": 8.5408759, "radius": 1000}, {"id": 329094569, "name": "Gonzalez", "amenity": "restaurant", "lat": 47.3962653, "lon": 8.5402882, "radius": 1000}, {"id": 411069901, "name": "Löwen", "amenity": "bar", "lat": 47.3953422, "lon": 8.5258288, "radius": 1000}, {"id": 480352081, "name": "Fallender Brunnenhof", "amenity": "restaurant", "lat": 47.402817, "lon": 8.5355605, "radius": 1000}, {"id": 488483086, "name": "New Avataar", "amenity": "restaurant", "lat": 47.3938594, "lon": 8.5311096, "radius": 1000}, {"id": 845099491, "name": "Kiosk / Restaurant", "amenity": "restaurant", "lat": 47.4048648, "lon": 8.5379355, "radius": 1000}, {"id": 1115819506, "name": "Giesserei Oerlikon", "amenity": "restaurant", "lat": 47.408614, "lon": 8.5376025, "radius": 1000}, {"id": 1137668847, "name": "Zürcher Kantonalbank", "amenity": "atm", "lat": 47.3979784, "lon": 8.5420896, "radius": 1000}, {"id": 1391382161, "name": "Hirsch-Apotheke", "amenity": "pharmacy", "lat": 47.3963465, "lon": 8.5408536, "radius": 1000}, {"id": 1391383876, "name": "Hirschwiesen-Apotheke", "amenity": "pharmacy", "lat": 47.4003419, "lon": 8.5439647, "radius": 1000}, {"id": 1592426153, "name": "Barcelona Restaurant", "amenity": "restaurant", "lat": 47.4020484, "lon": 8.5353195, "radius": 1000}, {"id": 1626579175, "name": "n/a", "amenity": "parking", "lat": 47.4075275, "lon": 8.5358765, "radius": 1000}, {"id": 2037084628, "name": "Gasthaus Hofwiesen", "amenity": "restaurant", "lat": 47.4063257, "lon": 8.5376266, "radius": 1000}, {"id": 2355693108, "name": "Lemon", "amenity": "restaurant", "lat": 47.4092114, "lon": 8.5377071, "radius": 1000}, {"id": 2383597668, "name": "Meister GAO", "amenity": "restaurant", "lat": 47.3972168, "lon": 8.5323442, "radius": 1000}, {"id": 2383597672, "name": "SAHltimbocca", "amenity": "restaurant", "lat": 47.3954854, "lon": 8.5318493, "radius": 1000}, {"id": 2479519173, "name": "Wehntal-Apotheke", "amenity": "pharmacy", "lat": 47.402496, "lon": 8.5358866, "radius": 1000}, {"id": 2514418477, "name": "Jeunesse", "amenity": "restaurant", "lat": 47.4041372, "lon": 8.5342275, "radius": 1000}, {"id": 2677704001, "name": "Tramblu", "amenity": "restaurant", "lat": 47.3983794, "lon": 8.536259, "radius": 1000}, {"id": 3250788311, "name": "Kafi Freud", "amenity": "cafe", "lat": 47.3959666, "lon": 8.5406154, "radius": 1000}, {"id": 3270483667, "name": "n/a", "amenity": "parking", "lat": 47.4067755, "lon": 8.532556, "radius": 1000}, {"id": 3389274208, "name": "Nihao", "amenity": "restaurant", "lat": 47.4024233, "lon": 8.5445394, "radius": 1000}, {"id": 3638530910, "name": "n/a", "amenity": "parking", "lat": 47.3940781, "lon": 8.5298427, "radius": 1000}, {"id": 3778147856, "name": "n/a", "amenity": "parking", "lat": 47.4005916, "lon": 8.5322197, "radius": 1000}, {"id": 4815870121, "name": "CHAIMA Thai Take Away", "amenity": "fast_food", "lat": 47.3950364, "lon": 8.5318488, "radius": 1000}, {"id": 4836599821, "name": "Hang's Gourmet Cuisine", "amenity": "restaurant", "lat": 47.3966207, "lon": 8.5405108, "radius": 1000}, {"id": 4958366047, "name": "Cucina", "amenity": "restaurant", "lat": 47.3957946, "lon": 8.5399353, "radius": 1000}, {"id": 4960082364, "name": "Cafeteria GZ Buchegg", "amenity": "cafe", "lat": 47.3989435, "lon": 8.5348343, "radius": 1000}, {"id": 5388344149, "name": "Paydos", "amenity": "cafe", "lat": 47.395935, "lon": 8.5400865, "radius": 1000}, {"id": 6343148993, "name": "Züri Bistro", "amenity": "fast_food", "lat": 47.3965002, "lon": 8.5409347, "radius": 1000}, {"id": 6350718195, "name": "Restaurant Bar Anna", "amenity": "restaurant", "lat": 47.3992912, "lon": 8.5401245, "radius": 1000}, {"id": 6391198064, "name": "n/a", "amenity": "atm", "lat": 47.3988836, "lon": 8.520409, "radius": 1000}, {"id": 7052349210, "name": "n/a", "amenity": "parking", "lat": 47.396765, "lon": 8.537148, "radius": 1000}, {"id": 7070367188, "name": "n/a", "amenity": "parking", "lat": 47.3967038, "lon": 8.5411794, "radius": 1000}, {"id": 7905699488, "name": "Associaçâo Portuguesa", "amenity": "restaurant", "lat": 47.4069217, "lon": 8.5363863, "radius": 1000}, {"id": 7948691808, "name": "n/a", "amenity": "fast_food", "lat": 47.3969241, "lon": 8.5297093, "radius": 1000}, {"id": 11194626948, "name": "ISTL Office", "amenity": "school", "lat": 47.4109396, "lon": 8.5309013, "radius": 1000}, {"id": 11929283671, "name": "Lia Siam", "amenity": "restaurant", "lat": 47.3973065, "lon": 8.5409593, "radius": 1000}]}
{"address": "Fahrnstrasse 25, 9402 Mörschwil", "price": 2880, "property_id": 4002080979, "area": "115m²", "rooms": 4.5, "lat": 47.4639669, "lon": 9.432168388679248, "amenities": [{"id": 380307387, "name": "Raiffeisen", "amenity": "bank", "lat": 47.468475, "lon": 9.4242167, "radius": 1000}, {"id": 745742088, "name": "Füger", "amenity": "cafe", "lat": 47.4681741, "lon": 9.4236445, "radius": 1000}, {"id": 12211342033, "name": "n/a", "amenity": "parking", "lat": 47.4628197, "lon": 9.4336961, "radius": 1000}]}
{"address": "Herrenhof 868, 9240 Niederglatt", "price": 2880, "property_id": 4002077676, "area": "115m²", "rooms": 4.5, "lat": 47.4240752, "lon": 9.1598683, "amenities": []}
{"address": "Muttenzerstrasse 129, 4127 Birsfelden", "price": 2880, "property_id": 4002059199, "area": "115m²", "rooms": 4.5, "lat": 47.5447189, "lon": 7.62688715, "amenities": [{"id": 1184592053, "name": "n/a", "amenity": "parking", "lat": 47.537754, "lon": 7.6246823, "radius": 1000}, {"id": 1422954804, "name": "n/a", "amenity": "restaurant", "lat": 47.5363828, "lon": 7.6271603, "radius": 1000}, {"id": 1422964359, "name": "Ritazza", "amenity": "restaurant", "lat": 47.5409522, "lon": 7.6195941, "radius": 1000}, {"id": 1598960218, "name": "TopPharm", "amenity": "pharmacy", "lat": 47.5526283, "lon": 7.6228669, "radius": 1000}, {"id": 1600137246, "name": "Basellandschaftliche Kantonalbank", "amenity": "bank", "lat": 47.55297, "lon": 7.623018, "radius": 1000}, {"id": 1600145427, "name": "Cafe Mesana", "amenity": "cafe", "lat": 47.553231, "lon": 7.622954, "radius": 1000}, {"id": 1600179732, "name": "Coop", "amenity": "parking", "lat": 47.5528367, "lon": 7.6215371, "radius": 1000}, {"id": 1610930944, "name": "Rotblau Bar|Bistro", "amenity": "bar", "lat": 47.5410878, "lon": 7.6192078, "radius": 1000}, {"id": 1615017684, "name": "BONANZA 2", "amenity": "restaurant", "lat": 47.5524699, "lon": 7.6237986, "radius": 1000}, {"id": 1615017685, "name": "Luxor", "amenity": "restaurant", "lat": 47.5525595, "lon": 7.6240178, "radius": 1000}, {"id": 1618094480, "name": "Wirtshaus St. Jakob", "amenity": "restaurant", "lat": 47.5416641, "lon": 7.617831, "radius": 1000}, {"id": 1784478396, "name": "n/a", "amenity": "parking", "lat": 47.551088, "lon": 7.620935, "radius": 1000}, {"id": 1784555588, "name": "Restaurant Hard", "amenity": "restaurant", "lat": 47.5482225, "lon": 7.6299077, "radius": 1000}, {"id": 1784566899, "name": "n/a", "amenity": "parking", "lat": 47.5476067, "lon": 7.6293905, "radius": 1000}, {"id": 1784585430, "name": "n/a", "amenity": "parking", "lat": 47.5473354, "lon": 7.6280863, "radius": 1000}, {"id": 1784587096, "name": "n/a", "amenity": "parking", "lat": 47.5471531, "lon": 7.629569, "radius": 1000}, {"id": 1784604154, "name": "n/a", "amenity": "parking", "lat": 47.5470183, "lon": 7.6268063, "radius": 1000}, {"id": 2392657649, "name": "Roxy Bar", "amenity": "bar", "lat": 47.5516336, "lon": 7.6236547, "radius": 1000}, {"id": 2456030637, "name": "TopPharm Lehenmatt Apotheke", "amenity": "pharmacy", "lat": 47.5476516, "lon": 7.6213023, "radius": 1000}, {"id": 3273856215, "name": "n/a", "amenity": "restaurant", "lat": 47.5389084, "lon": 7.6210099, "radius": 1000}, {"id": 4031318999, "name": "n/a", "amenity": "parking", "lat": 47.5496945, "lon": 7.6168325, "radius": 1000}, {"id": 4031337376, "name": "Dalbedych", "amenity": "restaurant", "lat": 47.5480644, "lon": 7.6208607, "radius": 1000}, {"id": 4031337378, "name": "Sutter Begg", "amenity": "cafe", "lat": 47.5472479, "lon": 7.6208003, "radius": 1000}, {"id": 4062717954, "name": "n/a", "amenity": "parking", "lat": 47.5485716, "lon": 7.6176453, "radius": 1000}, {"id": 4427996064, "name": "n/a", "amenity": "parking", "lat": 47.5396471, "lon": 7.6261785, "radius": 1000}, {"id": 5364651421, "name": "Da Graziella", "amenity": "cafe", "lat": 47.5407695, "lon": 7.6202457, "radius": 1000}, {"id": 5617859939, "name": "n/a", "amenity": "atm", "lat": 47.5480239, "lon": 7.6174503, "radius": 1000}, {"id": 5817091638, "name": "n/a", "amenity": "fast_food", "lat": 47.5385685, "lon": 7.6200822, "radius": 1000}, {"id": 5831501700, "name": "n/a", "amenity": "parking", "lat": 47.5396834, "lon": 7.6199315, "radius": 1000}, {"id": 5927628520, "name": "n/a", "amenity": "parking", "lat": 47.5486018, "lon": 7.617314, "radius": 1000}, {"id": 6937790909, "name": "Café Bar Santana", "amenity": "cafe", "lat": 47.5511296, "lon": 7.6241732, "radius": 1000}, {"id": 7218263338, "name": "Orthopädie Klinik am Bethesda Spital", "amenity": "clinic", "lat": 47.5477715, "lon": 7.6167976, "radius": 1000}, {"id": 7241813240, "name": "Radiologie", "amenity": "clinic", "lat": 47.5476037, "lon": 7.6171229, "radius": 1000}, {"id": 7465661977, "name": "Sun Store", "amenity": "pharmacy", "lat": 47.5409422, "lon": 7.6205762, "radius": 1000}, {"id": 7578166883, "name": "SAM'S Pizza Land", "amenity": "restaurant", "lat": 47.5410955, "lon": 7.6208991, "radius": 1000}, {"id": 8238707929, "name": "Schänzli", "amenity": "restaurant", "lat": 47.5366148, "lon": 7.6244956, "radius": 1000}, {"id": 9562305189, "name": "cafe flora mangia e bevi", "amenity": "restaurant", "lat": 47.5478024, "lon": 7.6267679, "radius": 1000}, {"id": 9562305190, "name": "Rebstock", "amenity": "restaurant", "lat": 47.5506791, "lon": 7.6243472, "radius": 1000}, {"id": 10846389185, "name": "n/a", "amenity": "parking", "lat": 47.5492549, "lon": 7.625468, "radius": 1000}, {"id": 10970797310, "name": "n/a", "amenity": "parking", "lat": 47.5398873, "lon": 7.6262758, "radius": 1000}]}
{"address": "Volkmarstrasse 15, 8006 Zürich", "price": 2880, "property_id": 4002058756, "area": "115m²", "rooms": 4.5, "lat": 47.38532765, "lon": 8.543725200223658, "amenities": [{"id": 105506327, "name": "Zum Alten Löwen", "amenity": "restaurant", "lat": 47.3849796, "lon": 8.5482469, "radius": 1000}, {"id": 252407018, "name": "Ristorante Culmann", "amenity": "restaurant", "lat": 47.3794422, "lon": 8.5470198, "radius": 1000}, {"id": 252407019, "name": "La Fontana", "amenity": "restaurant", "lat": 47.3797201, "lon": 8.5469255, "radius": 1000}, {"id": 267347570, "name": "Zürcher Kantonalbank", "amenity": "atm", "lat": 47.377669, "lon": 8.5404219, "radius": 1000}, {"id": 267348165, "name": "Postfinance", "amenity": "atm", "lat": 47.3784781, "lon": 8.5396564, "radius": 1000}, {"id": 267348185, "name": "Bancomat Raiffeisen", "amenity": "atm", "lat": 47.3782186, "lon": 8.5402302, "radius": 1000}, {"id": 267348518, "name": "McDonald's", "amenity": "fast_food", "lat": 47.3767165, "lon": 8.5403343, "radius": 1000}, {"id": 303067123, "name": "Primitivo", "amenity": "restaurant", "lat": 47.3851137, "lon": 8.5362371, "radius": 1000}, {"id": 312592661, "name": "Saravanaa Bhavan", "amenity": "fast_food", "lat": 47.3818876, "lon": 8.535575, "radius": 1000}, {"id": 317768650, "name": "Starbucks", "amenity": "cafe", "lat": 47.3765801, "lon": 8.5441952, "radius": 1000}, {"id": 321000070, "name": "Stazione Paradiso", "amenity": "restaurant", "lat": 47.3867368, "lon": 8.5340332, "radius": 1000}, {"id": 321361607, "name": "Postfinance", "amenity": "atm", "lat": 47.392108, "lon": 8.5382165, "radius": 1000}, {"id": 321364282, "name": "Tannenbar", "amenity": "cafe", "lat": 47.3773953, "lon": 8.5478673, "radius": 1000}, {"id": 321364310, "name": "Clausiusbar", "amenity": "restaurant", "lat": 47.3772558, "lon": 8.5470004, "radius": 1000}, {"id": 321364380, "name": "food&lab", "amenity": "restaurant", "lat": 47.378314, "lon": 8.548805, "radius": 1000}, {"id": 321947441, "name": "Zürcher Kantonalbank", "amenity": "atm", "lat": 47.3844836, "lon": 8.5316859, "radius": 1000}, {"id": 321947443, "name": "Postfinance", "amenity": "atm", "lat": 47.3842188, "lon": 8.532441, "radius": 1000}, {"id": 356308261, "name": "n/a", "amenity": "parking", "lat": 47.3783651, "lon": 8.5407657, "radius": 1000}, {"id": 360330661, "name": "Uncle 7", "amenity": "restaurant", "lat": 47.381874, "lon": 8.5338089, "radius": 1000}, {"id": 360330662, "name": "Vulkan", "amenity": "restaurant", "lat": 47.3819982, "lon": 8.5336329, "radius": 1000}, {"id": 365838427, "name": "Pizzeria Corallo", "amenity": "restaurant", "lat": 47.3865398, "lon": 8.5414596, "radius": 1000}, {"id": 365838929, "name": "Kreis 6", "amenity": "restaurant", "lat": 47.3861132, "lon": 8.5452851, "radius": 1000}, {"id": 365892432, "name": "Chuchi am Wasser", "amenity": "restaurant", "lat": 47.3830272, "lon": 8.5396636, "radius": 1000}, {"id": 365918123, "name": "Luigi", "amenity": "restaurant", "lat": 47.3789263, "lon": 8.5444555, "radius": 1000}, {"id": 370822481, "name": "Weinstube 1923", "amenity": "restaurant", "lat": 47.3764199, "lon": 8.5441261, "radius": 1000}, {"id": 370822646, "name": "Schurter", "amenity": "cafe", "lat": 47.3763302, "lon": 8.5440373, "radius": 1000}, {"id": 387909747, "name": "Kafischnaps", "amenity": "cafe", "lat": 47.3912249, "lon": 8.5359972, "radius": 1000}, {"id": 444463631, "name": "Matahari Bar", "amenity": "pub", "lat": 47.3840524, "lon": 8.5309307, "radius": 1000}, {"id": 446784538, "name": "LA Brea SoCal Tacos", "amenity": "restaurant", "lat": 47.3821979, "lon": 8.5317241, "radius": 1000}, {"id": 446784539, "name": "Spicy Box", "amenity": "restaurant", "lat": 47.382624, "lon": 8.5312467, "radius": 1000}, {"id": 446784541, "name": "TopPharm", "amenity": "pharmacy", "lat": 47.3839118, "lon": 8.5323405, "radius": 1000}, {"id": 504487282, "name": "The Lemon Grass", "amenity": "fast_food", "lat": 47.3857427, "lon": 8.539683, "radius": 1000}, {"id": 552929127, "name": "Drei Stuben", "amenity": "restaurant", "lat": 47.3832538, "lon": 8.5416447, "radius": 1000}, {"id": 552932425, "name": "Pizzeria Veneziana", "amenity": "restaurant", "lat": 47.383118, "lon": 8.5413332, "radius": 1000}, {"id": 567132764, "name": "Zürcher Kantonalbank", "amenity": "atm", "lat": 47.3796221, "lon": 8.5367801, "radius": 1000}, {"id": 567132770, "name": "Starbucks", "amenity": "cafe", "lat": 47.3801255, "lon": 8.5374525, "radius": 1000}, {"id": 568018605, "name": "Parkhaus Hauptbahnhof", "amenity": "parking", "lat": 47.3815048, "lon": 8.53761, "radius": 1000}, {"id": 582819804, "name": "Café Lang", "amenity": "cafe", "lat": 47.3851076, "lon": 8.5314772, "radius": 1000}, {"id": 582819971, "name": "AMO e lino", "amenity": "restaurant", "lat": 47.3847471, "lon": 8.5311137, "radius": 1000}, {"id": 632545305, "name": "Bocuci: Bottega & Cucina", "amenity": "restaurant", "lat": 47.3791435, "lon": 8.545208, "radius": 1000}, {"id": 632553574, "name": "Restaurant Haldenbach", "amenity": "restaurant", "lat": 47.3799672, "lon": 8.5469246, "radius": 1000}, {"id": 632562120, "name": "Züri Bistro", "amenity": "fast_food", "lat": 47.38053, "lon": 8.5479785, "radius": 1000}, {"id": 632562127, "name": "Ristorante Al Forno da Angelo", "amenity": "restaurant", "lat": 47.3805744, "lon": 8.5483371, "radius": 1000}, {"id": 633584154, "name": "Domino's", "amenity": "fast_food", "lat": 47.3784731, "lon": 8.547949, "radius": 1000}, {"id": 633584160, "name": "Café Oberstrass", "amenity": "cafe", "lat": 47.3782514, "lon": 8.5479609, "radius": 1000}, {"id": 633584181, "name": "Hot Pasta", "amenity": "restaurant", "lat": 47.3786854, "lon": 8.547952, "radius": 1000}, {"id": 633584200, "name": "The Alehouse Palmhof", "amenity": "pub", "lat": 47.3790827, "lon": 8.5478805, "radius": 1000}, {"id": 633584224, "name": "Lemon Grass", "amenity": "fast_food", "lat": 47.3796283, "lon": 8.5479597, "radius": 1000}, {"id": 693318633, "name": "ViCafe", "amenity": "cafe", "lat": 47.3768277, "lon": 8.5395824, "radius": 1000}, {"id": 693318662, "name": "Starbucks", "amenity": "cafe", "lat": 47.3767615, "lon": 8.5401477, "radius": 1000}, {"id": 703215222, "name": "Zentral", "amenity": "restaurant", "lat": 47.3799291, "lon": 8.5432583, "radius": 1000}, {"id": 703215583, "name": "Casa Ferlin", "amenity": "restaurant", "lat": 47.3797694, "lon": 8.5433497, "radius": 1000}, {"id": 703216769, "name": "TopPharm", "amenity": "pharmacy", "lat": 47.3776379, "lon": 8.5435927, "radius": 1000}, {"id": 725764696, "name": "Caffetteria am Limmatplatz", "amenity": "cafe", "lat": 47.3847107, "lon": 8.5321502, "radius": 1000}, {"id": 725764716, "name": "Tadka", "amenity": "restaurant", "lat": 47.3832551, "lon": 8.5332337, "radius": 1000}, {"id": 725764771, "name": "Püente", "amenity": "restaurant", "lat": 47.3821574, "lon": 8.5357577, "radius": 1000}, {"id": 725765073, "name": "Millennium", "amenity": "restaurant", "lat": 47.3842264, "lon": 8.5319218, "radius": 1000}, {"id": 784296063, "name": "UBS", "amenity": "atm", "lat": 47.3770609, "lon": 8.5437786, "radius": 1000}, {"id": 792593919, "name": "La Casa", "amenity": "restaurant", "lat": 47.3901801, "lon": 8.5400652, "radius": 1000}, {"id": 792593930, "name": "Sorell Rex", "amenity": "cafe", "lat": 47.3847859, "lon": 8.5431484, "radius": 1000}, {"id": 792594129, "name": "Richie's Chicken", "amenity": "fast_food", "lat": 47.3905675, "lon": 8.5394452, "radius": 1000}, {"id": 866538630, "name": "Bakery Bakery", "amenity": "cafe", "lat": 47.3920571, "lon": 8.5391006, "radius": 1000}, {"id": 866541138, "name": "Café Unterstrass", "amenity": "cafe", "lat": 47.3921165, "lon": 8.5386272, "radius": 1000}, {"id": 891896164, "name": "Rigi Apotheke und Drogerie", "amenity": "pharmacy", "lat": 47.3857176, "lon": 8.5487292, "radius": 1000}, {"id": 943868646, "name": "Biotheke", "amenity": "pharmacy", "lat": 47.3836588, "lon": 8.5484321, "radius": 1000}, {"id": 943875479, "name": "Hausammann", "amenity": "cafe", "lat": 47.3832878, "lon": 8.548393, "radius": 1000}, {"id": 973933405, "name": "Migros Restaurant", "amenity": "restaurant", "lat": 47.3855243, "lon": 8.5312041, "radius": 1000}, {"id": 988651681, "name": "Libanon il-Achdar", "amenity": "fast_food", "lat": 47.380844, "lon": 8.5347582, "radius": 1000}, {"id": 988652370, "name": "Yoshino", "amenity": "restaurant", "lat": 47.3807368, "lon": 8.5345758, "radius": 1000}, {"id": 988652775, "name": "n/a", "amenity": "cafe", "lat": 47.3808903, "lon": 8.5352061, "radius": 1000}, {"id": 988655652, "name": "Il Pentagramma", "amenity": "fast_food", "lat": 47.3811064, "lon": 8.5336844, "radius": 1000}, {"id": 1125157295, "name": "Schweizerisches Landesmuseum", "amenity": "parking", "lat": 47.3789662, "lon": 8.5412678, "radius": 1000}, {"id": 1253929883, "name": "PHƠ-NA, ASIA take away", "amenity": "fast_food", "lat": 47.3816075, "lon": 8.5330316, "radius": 1000}, {"id": 1253932506, "name": "Tant Pis", "amenity": "bar", "lat": 47.3820245, "lon": 8.5332903, "radius": 1000}, {"id": 1346146716, "name": "Brasserie zum Vorbahnhof", "amenity": "restaurant", "lat": 47.3797298, "lon": 8.5372003, "radius": 1000}, {"id": 1357158514, "name": "Habib Bank", "amenity": "bank", "lat": 47.3817572, "lon": 8.5435756, "radius": 1000}, {"id": 1374903992, "name": "St. Gallerhof", "amenity": "restaurant", "lat": 47.3799976, "lon": 8.5373936, "radius": 1000}, {"id": 1374903993, "name": "Sham", "amenity": "restaurant", "lat": 47.3800785, "lon": 8.5370948, "radius": 1000}, {"id": 1377247222, "name": "Dune Shisha Club", "amenity": "bar", "lat": 47.3812873, "lon": 8.5331062, "radius": 1000}, {"id": 1383580144, "name": "Amigos Tapas", "amenity": "restaurant", "lat": 47.3839003, "lon": 8.5307988, "radius": 1000}, {"id": 1390807245, "name": "Apotheke Schaffhauserplatz", "amenity": "pharmacy", "lat": 47.3916892, "lon": 8.5383642, "radius": 1000}, {"id": 1449013754, "name": "Libanes Take Away", "amenity": "fast_food", "lat": 47.3928661, "lon": 8.5392848, "radius": 1000}, {"id": 1867263239, "name": "Rubina", "amenity": "restaurant", "lat": 47.381545, "lon": 8.5483263, "radius": 1000}, {"id": 1888545640, "name": "El Luchador", "amenity": "restaurant", "lat": 47.3817668, "lon": 8.533656, "radius": 1000}, {"id": 1895863272, "name": "Café des Amis", "amenity": "cafe", "lat": 47.3886467, "lon": 8.5361093, "radius": 1000}, {"id": 1986773362, "name": "Moudi's Lecker Garten", "amenity": "restaurant", "lat": 47.3909932, "lon": 8.5455952, "radius": 1000}, {"id": 2081117847, "name": "Dropa Limmatplatz", "amenity": "pharmacy", "lat": 47.3850081, "lon": 8.5315987, "radius": 1000}, {"id": 2121176772, "name": "Kafi Seilbahn Rigiblick", "amenity": "cafe", "lat": 47.3853864, "lon": 8.5482515, "radius": 1000}, {"id": 2140368471, "name": "Bamboo Inn", "amenity": "restaurant", "lat": 47.3804786, "lon": 8.5472423, "radius": 1000}, {"id": 2140368560, "name": "Stapferstube da Rizzo", "amenity": "restaurant", "lat": 47.3821725, "lon": 8.5474623, "radius": 1000}, {"id": 2289533439, "name": "Restaurant Oase", "amenity": "restaurant", "lat": 47.3782017, "lon": 8.5408542, "radius": 1000}, {"id": 2392657620, "name": "Kleine Freiheit", "amenity": "cafe", "lat": 47.379135, "lon": 8.5445168, "radius": 1000}, {"id": 2427316757, "name": "Sweet & Sour Take-Away", "amenity": "fast_food", "lat": 47.3787825, "lon": 8.5416208, "radius": 1000}, {"id": 2452626421, "name": "Fux und Haas", "amenity": "fast_food", "lat": 47.3857229, "lon": 8.5395166, "radius": 1000}, {"id": 2509647639, "name": "Janni Pizza Kurier", "amenity": "fast_food", "lat": 47.3866392, "lon": 8.539917, "radius": 1000}, {"id": 2609734695, "name": "Bibliothek des Schweizerischen Nationalmuseums", "amenity": "library", "lat": 47.3790124, "lon": 8.5409969, "radius": 1000}, {"id": 2609805220, "name": "Grüne Bibliothek", "amenity": "library", "lat": 47.3789092, "lon": 8.5486877, "radius": 1000}, {"id": 2609816688, "name": "GESS-Bibliothek", "amenity": "library", "lat": 47.3802178, "lon": 8.5447287, "radius": 1000}, {"id": 2746139382, "name": "Mama's Beck", "amenity": "restaurant", "lat": 47.3885695, "lon": 8.539287, "radius": 1000}, {"id": 2888142444, "name": "Positano", "amenity": "restaurant", "lat": 47.3775576, "lon": 8.5438988, "radius": 1000}, {"id": 2888142445, "name": "Bombay Karachi", "amenity": "restaurant", "lat": 47.3793233, "lon": 8.5435476, "radius": 1000}, {"id": 2888142446, "name": "Commihalle", "amenity": "restaurant", "lat": 47.3777853, "lon": 8.5438498, "radius": 1000}, {"id": 2888172595, "name": "Santa Lucia Subito", "amenity": "restaurant", "lat": 47.3815179, "lon": 8.5422215, "radius": 1000}, {"id": 2888173290, "name": "Take Easy Thai Food", "amenity": "fast_food", "lat": 47.3811314, "lon": 8.542114, "radius": 1000}, {"id": 2904967414, "name": "Eldorado", "amenity": "bar", "lat": 47.3836636, "lon": 8.5326533, "radius": 1000}, {"id": 2904973400, "name": "Zam Dapor", "amenity": "restaurant", "lat": 47.3857107, "lon": 8.5420014, "radius": 1000}, {"id": 2957645174, "name": "Thali Indian Restaurant", "amenity": "restaurant", "lat": 47.390294, "lon": 8.5392273, "radius": 1000}, {"id": 3103337030, "name": "Al Piattino", "amenity": "cafe", "lat": 47.380794, "lon": 8.5346589, "radius": 1000}, {"id": 3357441576, "name": "African Queen", "amenity": "restaurant", "lat": 47.3816229, "lon": 8.5421505, "radius": 1000}, {"id": 3381293318, "name": "SimSim", "amenity": "restaurant", "lat": 47.3878521, "lon": 8.5392302, "radius": 1000}, {"id": 3381358177, "name": "Konditorei Cafe", "amenity": "cafe", "lat": 47.3882455, "lon": 8.5359339, "radius": 1000}, {"id": 3387706567, "name": "Bibliothek Erdwissenschaften", "amenity": "library", "lat": 47.3785235, "lon": 8.5473008, "radius": 1000}, {"id": 3483379593, "name": "Bubble House", "amenity": "cafe", "lat": 47.3766656, "lon": 8.540727, "radius": 1000}, {"id": 3537752740, "name": "Cafe Takeaway", "amenity": "cafe", "lat": 47.378856, "lon": 8.5438982, "radius": 1000}, {"id": 3581829993, "name": "Migros Bank", "amenity": "bank", "lat": 47.3855128, "lon": 8.5315853, "radius": 1000}, {"id": 3590834039, "name": "Zürcher Kantonalbank", "amenity": "atm", "lat": 47.3776873, "lon": 8.5392743, "radius": 1000}, {"id": 3590836589, "name": "Postfinance", "amenity": "atm", "lat": 47.3770501, "lon": 8.5403879, "radius": 1000}, {"id": 3706789050, "name": "Didi's Frieden", "amenity": "restaurant", "lat": 47.3792128, "lon": 8.5435914, "radius": 1000}, {"id": 3726134745, "name": "Hanswurst", "amenity": "fast_food", "lat": 47.3840062, "lon": 8.5311406, "radius": 1000}, {"id": 3751319529, "name": "Burgermeister", "amenity": "restaurant", "lat": 47.384344, "lon": 8.5311512, "radius": 1000}, {"id": 3781295176, "name": "Marronistand", "amenity": "fast_food", "lat": 47.3771803, "lon": 8.5414903, "radius": 1000}, {"id": 3824285559, "name": "Postfinance", "amenity": "atm", "lat": 47.378695, "lon": 8.5509173, "radius": 1000}, {"id": 3875851857, "name": "Hotel Bristol", "amenity": "restaurant", "lat": 47.379626, "lon": 8.5434495, "radius": 1000}, {"id": 3932278823, "name": "Chiang Mai", "amenity": "restaurant", "lat": 47.3806356, "lon": 8.5336595, "radius": 1000}, {"id": 3987856802, "name": "Klara's Kitchen", "amenity": "fast_food", "lat": 47.3787999, "lon": 8.5479501, "radius": 1000}, {"id": 4035680910, "name": "Himalaya", "amenity": "restaurant", "lat": 47.3830864, "lon": 8.5329144, "radius": 1000}, {"id": 4053473354, "name": "Al Ventotto", "amenity": "restaurant", "lat": 47.3902274, "lon": 8.538794, "radius": 1000}, {"id": 4193459893, "name": "QQ Sushi", "amenity": "restaurant", "lat": 47.377413, "lon": 8.5439582, "radius": 1000}, {"id": 4217457104, "name": "Kebi", "amenity": "restaurant", "lat": 47.378683, "lon": 8.5437382, "radius": 1000}, {"id": 4244051791, "name": "Albanesi", "amenity": "cafe", "lat": 47.3773061, "lon": 8.538363, "radius": 1000}, {"id": 4256050998, "name": "Auer & Co", "amenity": "cafe", "lat": 47.38478, "lon": 8.5336683, "radius": 1000}, {"id": 4316896999, "name": "Orient Catering", "amenity": "restaurant", "lat": 47.3789518, "lon": 8.5447211, "radius": 1000}, {"id": 4406891594, "name": "Wesley's Kitchen", "amenity": "restaurant", "lat": 47.381828, "lon": 8.5326917, "radius": 1000}, {"id": 4424600893, "name": "San Gennaro", "amenity": "restaurant", "lat": 47.3777733, "lon": 8.5398232, "radius": 1000}, {"id": 4424600894, "name": "Buffet Express", "amenity": "fast_food", "lat": 47.3779896, "lon": 8.5394493, "radius": 1000}, {"id": 4424600895, "name": "Bahnhof Apotheke", "amenity": "pharmacy", "lat": 47.3774306, "lon": 8.5400215, "radius": 1000}, {"id": 4424600896, "name": "Action Burger", "amenity": "fast_food", "lat": 47.377802, "lon": 8.5397165, "radius": 1000}, {"id": 4424600897, "name": "The Counter", "amenity": "restaurant", "lat": 47.3772197, "lon": 8.5407256, "radius": 1000}, {"id": 4424600898, "name": "Brasserie Federal", "amenity": "restaurant", "lat": 47.3780227, "lon": 8.5407173, "radius": 1000}, {"id": 4424600899, "name": "Burger King", "amenity": "fast_food", "lat": 47.3785645, "lon": 8.5397578, "radius": 1000}, {"id": 4424600900, "name": "Cafe Oscar", "amenity": "cafe", "lat": 47.3778329, "lon": 8.5396019, "radius": 1000}, {"id": 4424600903, "name": "Da Capo Bar", "amenity": "cafe", "lat": 47.3771949, "lon": 8.5407369, "radius": 1000}, {"id": 4424600904, "name": "Brasserie Süd", "amenity": "restaurant", "lat": 47.3773153, "lon": 8.5403976, "radius": 1000}, {"id": 4424600906, "name": "Il Baretto", "amenity": "cafe", "lat": 47.378481, "lon": 8.5397177, "radius": 1000}, {"id": 4424600919, "name": "Sora Sushi", "amenity": "restaurant", "lat": 47.3775929, "lon": 8.53946, "radius": 1000}, {"id": 4424654345, "name": "Pret A Manger", "amenity": "cafe", "lat": 47.3787638, "lon": 8.5397898, "radius": 1000}, {"id": 4424654349, "name": "Burger King", "amenity": "fast_food", "lat": 47.3784804, "lon": 8.5400687, "radius": 1000}, {"id": 4424654359, "name": "Zopf & Zöpfli", "amenity": "fast_food", "lat": 47.3789067, "lon": 8.5384757, "radius": 1000}, {"id": 4424654373, "name": "Rice Up!", "amenity": "fast_food", "lat": 47.3781012, "lon": 8.5387997, "radius": 1000}, {"id": 4424679502, "name": "Blueberry", "amenity": "fast_food", "lat": 47.3781471, "lon": 8.5386585, "radius": 1000}, {"id": 4424679503, "name": "Hitzberger", "amenity": "fast_food", "lat": 47.3780447, "lon": 8.5390574, "radius": 1000}, {"id": 4424679508, "name": "Negishi", "amenity": "fast_food", "lat": 47.3780692, "lon": 8.5389287, "radius": 1000}, {"id": 4424695481, "name": "kookoo", "amenity": "fast_food", "lat": 47.3776115, "lon": 8.5391321, "radius": 1000}, {"id": 4424939138, "name": "Amavita", "amenity": "pharmacy", "lat": 47.3773328, "lon": 8.5396659, "radius": 1000}, {"id": 4424939140, "name": "La Piadina", "amenity": "fast_food", "lat": 47.3770886, "lon": 8.5411485, "radius": 1000}, {"id": 4424939142, "name": "Brezelkönig", "amenity": "fast_food", "lat": 47.3777536, "lon": 8.538123, "radius": 1000}, {"id": 4424939149, "name": "Il Baretto", "amenity": "cafe", "lat": 47.3770331, "lon": 8.5402146, "radius": 1000}, {"id": 4424939159, "name": "Suan Long", "amenity": "fast_food", "lat": 47.3769492, "lon": 8.5397067, "radius": 1000}, {"id": 4424939160, "name": "M-panada", "amenity": "fast_food", "lat": 47.37762, "lon": 8.5387663, "radius": 1000}, {"id": 4424939163, "name": "UBS", "amenity": "atm", "lat": 47.3775317, "lon": 8.5389162, "radius": 1000}, {"id": 4424939164, "name": "Züri Bistro", "amenity": "fast_food", "lat": 47.3769816, "lon": 8.5411309, "radius": 1000}, {"id": 4424939168, "name": "Tchibo", "amenity": "cafe", "lat": 47.3776542, "lon": 8.538495, "radius": 1000}, {"id": 4496730804, "name": "Super Guud", "amenity": "fast_food", "lat": 47.3792749, "lon": 8.536619, "radius": 1000}, {"id": 4496731300, "name": "Brezelkönig", "amenity": "fast_food", "lat": 47.3789876, "lon": 8.5364584, "radius": 1000}, {"id": 4496761389, "name": "Burger King", "amenity": "fast_food", "lat": 47.3795918, "lon": 8.5370962, "radius": 1000}, {"id": 4554243927, "name": "PostFinance", "amenity": "atm", "lat": 47.379426, "lon": 8.537027, "radius": 1000}, {"id": 4579719494, "name": "Spitz", "amenity": "restaurant", "lat": 47.3789138, "lon": 8.5409931, "radius": 1000}, {"id": 4599535995, "name": "Corner 48", "amenity": "restaurant", "lat": 47.3803612, "lon": 8.5424142, "radius": 1000}, {"id": 4817455055, "name": "Maki Haus", "amenity": "restaurant", "lat": 47.37828, "lon": 8.5437936, "radius": 1000}, {"id": 4827130172, "name": "Kaimug", "amenity": "fast_food", "lat": 47.3786252, "lon": 8.5402781, "radius": 1000}, {"id": 4833061522, "name": "Dunkin'", "amenity": "fast_food", "lat": 47.3778169, "lon": 8.5392507, "radius": 1000}, {"id": 4833061525, "name": "Nordsee", "amenity": "fast_food", "lat": 47.3778032, "lon": 8.5398675, "radius": 1000}, {"id": 4833061526, "name": "Il Baretto", "amenity": "cafe", "lat": 47.3778169, "lon": 8.5398255, "radius": 1000}, {"id": 4833061534, "name": "Medbase Apotheke", "amenity": "pharmacy", "lat": 47.3783532, "lon": 8.5396557, "radius": 1000}, {"id": 4833061536, "name": "Maru", "amenity": "fast_food", "lat": 47.3781269, "lon": 8.5401993, "radius": 1000}, {"id": 4833061543, "name": "Subway", "amenity": "fast_food", "lat": 47.3786021, "lon": 8.5403751, "radius": 1000}, {"id": 4833061544, "name": "Starbucks", "amenity": "cafe", "lat": 47.37865, "lon": 8.5401987, "radius": 1000}, {"id": 4833061545, "name": "Brezelkönig", "amenity": "fast_food", "lat": 47.3786694, "lon": 8.5401179, "radius": 1000}, {"id": 4833061594, "name": "Le Café", "amenity": "cafe", "lat": 47.3778202, "lon": 8.5399275, "radius": 1000}, {"id": 4833061595, "name": "Time... Lounge", "amenity": "restaurant", "lat": 47.3777455, "lon": 8.5393944, "radius": 1000}, {"id": 4833061596, "name": "Rapido", "amenity": "fast_food", "lat": 47.3777337, "lon": 8.5393, "radius": 1000}, {"id": 4838594367, "name": "Espressino Due", "amenity": "cafe", "lat": 47.3775381, "lon": 8.5391086, "radius": 1000}, {"id": 4840731929, "name": "Postfinance", "amenity": "atm", "lat": 47.378928, "lon": 8.5388315, "radius": 1000}, {"id": 4841545849, "name": "Klubschule Migros Limmatplatz", "amenity": "school", "lat": 47.3857517, "lon": 8.531279, "radius": 1000}, {"id": 4843837956, "name": "Bancomat Raiffeisen", "amenity": "atm", "lat": 47.3782782, "lon": 8.5396772, "radius": 1000}, {"id": 4843837964, "name": "Wesley's Kitchen", "amenity": "fast_food", "lat": 47.3794641, "lon": 8.5372186, "radius": 1000}, {"id": 4889986286, "name": "Restaurant Rigiblick", "amenity": "restaurant", "lat": 47.3883565, "lon": 8.5532985, "radius": 1000}, {"id": 4891858476, "name": "Mensa Institut Minerva", "amenity": "restaurant", "lat": 47.3819656, "lon": 8.5455532, "radius": 1000}, {"id": 4892249174, "name": "Orient Catering", "amenity": "fast_food", "lat": 47.3789144, "lon": 8.5448353, "radius": 1000}, {"id": 4963589219, "name": "Klara‘s Kitchen", "amenity": "cafe", "lat": 47.3827596, "lon": 8.5437443, "radius": 1000}, {"id": 5002825178, "name": "Fachhochschule Graubünden Standort Zürich", "amenity": "university", "lat": 47.380495, "lon": 8.5369878, "radius": 1000}, {"id": 5119622513, "name": "Pasta Barn", "amenity": "fast_food", "lat": 47.3791284, "lon": 8.5365479, "radius": 1000}, {"id": 5119622514, "name": "Caffè Spettacolo", "amenity": "cafe", "lat": 47.3787392, "lon": 8.5398986, "radius": 1000}, {"id": 5142601754, "name": "IST Höhere Fachschule für Tourismus", "amenity": "school", "lat": 47.3821347, "lon": 8.5318509, "radius": 1000}, {"id": 5363744621, "name": "Panama", "amenity": "bar", "lat": 47.3849765, "lon": 8.5356587, "radius": 1000}, {"id": 5386900841, "name": "Dieci Pizzakurier", "amenity": "fast_food", "lat": 47.3827555, "lon": 8.5505487, "radius": 1000}, {"id": 5670095833, "name": "La Soupière", "amenity": "restaurant", "lat": 47.3769342, "lon": 8.5393403, "radius": 1000}, {"id": 5673051843, "name": "Café Gourmet", "amenity": "cafe", "lat": 47.3769757, "lon": 8.5393361, "radius": 1000}, {"id": 5938746755, "name": "Curry Corner", "amenity": "fast_food", "lat": 47.3833287, "lon": 8.541864, "radius": 1000}, {"id": 6070128841, "name": "Parkhaus Stampfenbach", "amenity": "parking", "lat": 47.3864863, "lon": 8.5390689, "radius": 1000}, {"id": 6205732851, "name": "Con Gusto", "amenity": "fast_food", "lat": 47.3919608, "lon": 8.5390827, "radius": 1000}, {"id": 6207463870, "name": "Bibliothek des Schweizerischen Instituts für Kinder- und Jugendmedien SIKJM", "amenity": "library", "lat": 47.3845291, "lon": 8.5397558, "radius": 1000}, {"id": 6551162308, "name": "Hitzberger", "amenity": "fast_food", "lat": 47.3782294, "lon": 8.5360587, "radius": 1000}, {"id": 6551162309, "name": "Kaimug", "amenity": "fast_food", "lat": 47.378223, "lon": 8.5360911, "radius": 1000}, {"id": 6574004298, "name": "Vito", "amenity": "fast_food", "lat": 47.3848528, "lon": 8.5322457, "radius": 1000}, {"id": 6680755386, "name": "Afghan Anar", "amenity": "restaurant", "lat": 47.3840078, "lon": 8.5318712, "radius": 1000}, {"id": 6765644326, "name": "Stadtkäserei", "amenity": "restaurant", "lat": 47.3802884, "lon": 8.5344583, "radius": 1000}, {"id": 6769845245, "name": "Zollstrasse 53", "amenity": "parking", "lat": 47.3805348, "lon": 8.533547, "radius": 1000}, {"id": 6872075030, "name": "Heisswein", "amenity": "restaurant", "lat": 47.3810005, "lon": 8.5353465, "radius": 1000}, {"id": 6872101830, "name": "Hidmona", "amenity": "bar", "lat": 47.3811384, "lon": 8.5347861, "radius": 1000}, {"id": 6969551971, "name": "Schigu Kafi", "amenity": "cafe", "lat": 47.3868032, "lon": 8.5363403, "radius": 1000}, {"id": 6989685409, "name": "Il Baretto", "amenity": "cafe", "lat": 47.3805056, "lon": 8.5341527, "radius": 1000}, {"id": 7055101045, "name": "Anoah", "amenity": "restaurant", "lat": 47.3848545, "lon": 8.5485426, "radius": 1000}, {"id": 7070435520, "name": "Natural Bites", "amenity": "cafe", "lat": 47.3803426, "lon": 8.5478344, "radius": 1000}, {"id": 7204648136, "name": "NA081", "amenity": "restaurant", "lat": 47.3818826, "lon": 8.5334773, "radius": 1000}, {"id": 7465666136, "name": "Zur Rose", "amenity": "pharmacy", "lat": 47.3855599, "lon": 8.5313722, "radius": 1000}, {"id": 7540140384, "name": "Nordsee", "amenity": "fast_food", "lat": 47.3769606, "lon": 8.540158, "radius": 1000}, {"id": 7655574678, "name": "Bistro Spitz", "amenity": "cafe", "lat": 47.3789633, "lon": 8.5409353, "radius": 1000}, {"id": 7942306421, "name": "Miró", "amenity": "cafe", "lat": 47.3773943, "lon": 8.5402226, "radius": 1000}, {"id": 8387042153, "name": "n/a", "amenity": "parking", "lat": 47.3805409, "lon": 8.5366477, "radius": 1000}, {"id": 8486430588, "name": "Dunkin'", "amenity": "fast_food", "lat": 47.3774459, "lon": 8.5400283, "radius": 1000}, {"id": 8497598414, "name": "ZüriPharm AG", "amenity": "pharmacy", "lat": 47.3783858, "lon": 8.5504388, "radius": 1000}, {"id": 9277633394, "name": "Oh My Greek!", "amenity": "fast_food", "lat": 47.379737, "lon": 8.5363362, "radius": 1000}, {"id": 9499319817, "name": "Mohini", "amenity": "restaurant", "lat": 47.3781881, "lon": 8.5441334, "radius": 1000}, {"id": 9635640296, "name": "Autonome Schule Zürich", "amenity": "school", "lat": 47.3846417, "lon": 8.5339166, "radius": 1000}, {"id": 9642595626, "name": "Stiftung m.a.c. – Sonderpädagogische Schule", "amenity": "school", "lat": 47.3854719, "lon": 8.5419658, "radius": 1000}, {"id": 9682468631, "name": "Dayschool Beckenhof", "amenity": "school", "lat": 47.3834916, "lon": 8.5413134, "radius": 1000}, {"id": 9694602779, "name": "Gesamtschule Unterstrass", "amenity": "school", "lat": 47.3925273, "lon": 8.5362781, "radius": 1000}, {"id": 9697408396, "name": "FfD Fachschule für Detailhandel", "amenity": "school", "lat": 47.3774632, "lon": 8.5440328, "radius": 1000}, {"id": 9697845464, "name": "Schule Minerva Zürich", "amenity": "school", "lat": 47.3818918, "lon": 8.5455529, "radius": 1000}, {"id": 9717546279, "name": "Neue Schule Zürich", "amenity": "school", "lat": 47.3835082, "lon": 8.5475639, "radius": 1000}, {"id": 9718122719, "name": "Lernatelier Tandem", "amenity": "school", "lat": 47.3805547, "lon": 8.5516899, "radius": 1000}, {"id": 9719866404, "name": "Schule Talenta Zürich", "amenity": "school", "lat": 47.3858578, "lon": 8.5418353, "radius": 1000}, {"id": 9726635896, "name": "Sekundarschule am Rigiplatz", "amenity": "school", "lat": 47.3858674, "lon": 8.5463793, "radius": 1000}, {"id": 9792386803, "name": "Vito", "amenity": "restaurant", "lat": 47.3783449, "lon": 8.5357764, "radius": 1000}, {"id": 10078000117, "name": "Tiny Fish", "amenity": "fast_food", "lat": 47.3784125, "lon": 8.5478096, "radius": 1000}, {"id": 10158245332, "name": "Museumscafé", "amenity": "restaurant", "lat": 47.3827433, "lon": 8.5357837, "radius": 1000}, {"id": 10578946341, "name": "Café Elena", "amenity": "cafe", "lat": 47.3781048, "lon": 8.5430318, "radius": 1000}, {"id": 10650748517, "name": "Café Bar Meierei", "amenity": "cafe", "lat": 47.3822549, "lon": 8.550719, "radius": 1000}, {"id": 10654227179, "name": "Restaurant Leonhard", "amenity": "restaurant", "lat": 47.3772897, "lon": 8.5459039, "radius": 1000}, {"id": 10831702421, "name": "DaPizi", "amenity": "restaurant", "lat": 47.3812322, "lon": 8.5331802, "radius": 1000}, {"id": 10860757271, "name": "Orient World", "amenity": "restaurant", "lat": 47.3788419, "lon": 8.545135, "radius": 1000}, {"id": 10893221699, "name": "Blooming Juice", "amenity": "fast_food", "lat": 47.3914598, "lon": 8.539107, "radius": 1000}, {"id": 10896827512, "name": "Sapa Canteen", "amenity": "restaurant", "lat": 47.3800211, "lon": 8.5422229, "radius": 1000}, {"id": 10949082348, "name": "differente", "amenity": "restaurant", "lat": 47.3881157, "lon": 8.5390656, "radius": 1000}, {"id": 10995816514, "name": "mi-te", "amenity": "restaurant", "lat": 47.3791998, "lon": 8.5479282, "radius": 1000}, {"id": 10995816516, "name": "Mesa Madrid", "amenity": "restaurant", "lat": 47.3833749, "lon": 8.5431961, "radius": 1000}, {"id": 11227223686, "name": "Bistro Pinto Take Away", "amenity": "restaurant", "lat": 47.3872577, "lon": 8.540021, "radius": 1000}, {"id": 11399918909, "name": "Da Marco", "amenity": "fast_food", "lat": 47.3844835, "lon": 8.5322947, "radius": 1000}, {"id": 11416682178, "name": "Yardbird", "amenity": "fast_food", "lat": 47.3774579, "lon": 8.5409554, "radius": 1000}, {"id": 11673717382, "name": "Bimbi's Take Away", "amenity": "restaurant", "lat": 47.3825112, "lon": 8.5414846, "radius": 1000}, {"id": 11778835755, "name": "Burger Boutique", "amenity": "fast_food", "lat": 47.3841513, "lon": 8.5481184, "radius": 1000}, {"id": 11800118612, "name": "betterview", "amenity": "clinic", "lat": 47.3768034, "lon": 8.5412212, "radius": 1000}, {"id": 11956514145, "name": "3 Sushi Momo", "amenity": "fast_food", "lat": 47.3839455, "lon": 8.5307226, "radius": 1000}, {"id": 11999562546, "name": "fink's", "amenity": "restaurant", "lat": 47.3817769, "lon": 8.5339618, "radius": 1000}, {"id": 12090984377, "name": "Edi", "amenity": "restaurant", "lat": 47.3886532, "lon": 8.5392721, "radius": 1000}, {"id": 12117995033, "name": "Lernstudio", "amenity": "school", "lat": 47.3819111, "lon": 8.5456909, "radius": 1000}, {"id": 12250681350, "name": "Bity Crypto ATM", "amenity": "atm", "lat": 47.3774466, "lon": 8.5385091, "radius": 1000}, {"id": 12250717975, "name": "Värdex Crypto ATM", "amenity": "atm", "lat": 47.3842118, "lon": 8.5310402, "radius": 1000}, {"id": 12307882205, "name": "n/a", "amenity": "parking", "lat": 47.3893458, "lon": 8.5348668, "radius": 1000}, {"id": 12662402629, "name": "MRI Bahnhofplatz", "amenity": "clinic", "lat": 47.3765927, "lon": 8.5407672, "radius": 1000}]}
{"address": "Niklaus Konrad-Strasse 4, 4500 Solothurn", "price": 2880, "property_id": 4002053936, "area": "115m²", "rooms": 4.5, "lat": 47.204513902108786, "lon": 7.539104019684887, "amenities": [{"id": 292225874, "name": "UBS", "amenity": "atm", "lat": 47.2048431, "lon": 7.5407604, "radius": 1000}, {"id": 301667716, "name": "Restaurant Sternen", "amenity": "restaurant", "lat": 47.2121965, "lon": 7.5449478, "radius": 1000}, {"id": 301668363, "name": "Efem Imbiss & Café", "amenity": "fast_food", "lat": 47.2046306, "lon": 7.5405994, "radius": 1000}, {"id": 301764729, "name": "Vorstadt Bistro", "amenity": "cafe", "lat": 47.2048838, "lon": 7.5408996, "radius": 1000}, {"id": 301764730, "name": "Medbase Apotheke Solothurn", "amenity": "pharmacy", "lat": 47.2051064, "lon": 7.5405056, "radius": 1000}, {"id": 302828546, "name": "Caffè Spettacolo", "amenity": "cafe", "lat": 47.2042463, "lon": 7.54277, "radius": 1000}, {"id": 302828561, "name": "Suteria", "amenity": "cafe", "lat": 47.2081063, "lon": 7.5381924, "radius": 1000}, {"id": 302828563, "name": "TopPharm Hirsch Apotheke", "amenity": "pharmacy", "lat": 47.207909, "lon": 7.5374217, "radius": 1000}, {"id": 302828572, "name": "Kaffehalle", "amenity": "cafe", "lat": 47.2081276, "lon": 7.5355274, "radius": 1000}, {"id": 415415009, "name": "Roter Turm", "amenity": "restaurant", "lat": 47.2074597, "lon": 7.5368962, "radius": 1000}, {"id": 830588129, "name": "Akropolis", "amenity": "restaurant", "lat": 47.2048882, "lon": 7.5389356, "radius": 1000}, {"id": 833710708, "name": "Die Grüne Fee", "amenity": "bar", "lat": 47.2074594, "lon": 7.5387601, "radius": 1000}, {"id": 939041589, "name": "Solo Imbiss", "amenity": "fast_food", "lat": 47.2048779, "lon": 7.5368448, "radius": 1000}, {"id": 939041596, "name": "Trattoria Napoli", "amenity": "restaurant", "lat": 47.2045375, "lon": 7.5362046, "radius": 1000}, {"id": 939041599, "name": "Notausgang", "amenity": "restaurant", "lat": 47.2044483, "lon": 7.5363896, "radius": 1000}, {"id": 939041612, "name": "The Dock", "amenity": "bar", "lat": 47.2051717, "lon": 7.5361348, "radius": 1000}, {"id": 939041616, "name": "Adler", "amenity": "restaurant", "lat": 47.2047763, "lon": 7.5361643, "radius": 1000}, {"id": 939041620, "name": "Altes Spital", "amenity": "restaurant", "lat": 47.2048314, "lon": 7.5354098, "radius": 1000}, {"id": 939041621, "name": "Sonne", "amenity": "restaurant", "lat": 47.2047854, "lon": 7.5363896, "radius": 1000}, {"id": 939041623, "name": "Vini-Al Grappolo", "amenity": "restaurant", "lat": 47.2049778, "lon": 7.5368094, "radius": 1000}, {"id": 939041634, "name": "Steinbock", "amenity": "pub", "lat": 47.2046387, "lon": 7.5379426, "radius": 1000}, {"id": 939041645, "name": "Fragale", "amenity": "restaurant", "lat": 47.2046861, "lon": 7.5375537, "radius": 1000}, {"id": 939041649, "name": "Fu-Lin", "amenity": "restaurant", "lat": 47.2037603, "lon": 7.5390531, "radius": 1000}, {"id": 939048277, "name": "Fryhof Bistro", "amenity": "pub", "lat": 47.2072632, "lon": 7.5350978, "radius": 1000}, {"id": 939048278, "name": "Du Commerce", "amenity": "restaurant", "lat": 47.2070915, "lon": 7.5352809, "radius": 1000}, {"id": 939048279, "name": "Locanda", "amenity": "restaurant", "lat": 47.2073702, "lon": 7.5359649, "radius": 1000}, {"id": 939048282, "name": "Zum Türk", "amenity": "bar", "lat": 47.2071206, "lon": 7.5367883, "radius": 1000}, {"id": 939048283, "name": "19th Alley", "amenity": "pub", "lat": 47.2072427, "lon": 7.5385103, "radius": 1000}, {"id": 939048288, "name": "Zur Grünen Ecke", "amenity": "restaurant", "lat": 47.2064017, "lon": 7.5358999, "radius": 1000}, {"id": 939048289, "name": "Wengihaus", "amenity": "restaurant", "lat": 47.206512, "lon": 7.5358683, "radius": 1000}, {"id": 939048290, "name": "Löwen", "amenity": "restaurant", "lat": 47.2069183, "lon": 7.5370136, "radius": 1000}, {"id": 939048292, "name": "Babylon", "amenity": "fast_food", "lat": 47.2072718, "lon": 7.5368205, "radius": 1000}, {"id": 939048293, "name": "Trattoria Pizzeria da Daniele", "amenity": "restaurant", "lat": 47.2073374, "lon": 7.5374508, "radius": 1000}, {"id": 939048295, "name": "Chicken Chaoticum", "amenity": "pub", "lat": 47.2082941, "lon": 7.5347806, "radius": 1000}, {"id": 939048297, "name": "Zum Stephan", "amenity": "restaurant", "lat": 47.207188, "lon": 7.5355626, "radius": 1000}, {"id": 939048298, "name": "Zunfthaus zu Wirthen", "amenity": "restaurant", "lat": 47.2075725, "lon": 7.5366033, "radius": 1000}, {"id": 939048299, "name": "Brasserie Federale", "amenity": "restaurant", "lat": 47.2077, "lon": 7.5367052, "radius": 1000}, {"id": 1305573211, "name": "McDonald's", "amenity": "fast_food", "lat": 47.2040461, "lon": 7.5415408, "radius": 1000}, {"id": 1305574961, "name": "Thai Sunshine", "amenity": "restaurant", "lat": 47.2047013, "lon": 7.5364428, "radius": 1000}, {"id": 1348493919, "name": "Salzhaus", "amenity": "restaurant", "lat": 47.206414, "lon": 7.536623, "radius": 1000}, {"id": 1348523756, "name": "Kreuz", "amenity": "restaurant", "lat": 47.2067438, "lon": 7.5376825, "radius": 1000}, {"id": 1348523758, "name": "Steiner", "amenity": "cafe", "lat": 47.2049949, "lon": 7.5407086, "radius": 1000}, {"id": 1348543899, "name": "Confiserie Hofer", "amenity": "cafe", "lat": 47.2065141, "lon": 7.5351797, "radius": 1000}, {"id": 1348543900, "name": "Migros Restaurant", "amenity": "restaurant", "lat": 47.2066385, "lon": 7.5334304, "radius": 1000}, {"id": 1360363823, "name": "Pittaria", "amenity": "fast_food", "lat": 47.2069204, "lon": 7.5379211, "radius": 1000}, {"id": 1445700155, "name": "n/a", "amenity": "parking", "lat": 47.2037855, "lon": 7.5398567, "radius": 1000}, {"id": 1612175339, "name": "Solheure", "amenity": "pub", "lat": 47.2070877, "lon": 7.5399342, "radius": 1000}, {"id": 1711878551, "name": "Kaufmännische Berufsschule", "amenity": "school", "lat": 47.2049253, "lon": 7.5382655, "radius": 1000}, {"id": 1711923340, "name": "Jägerstübli", "amenity": "restaurant", "lat": 47.2063927, "lon": 7.5354338, "radius": 1000}, {"id": 1711923342, "name": "NEST", "amenity": "cafe", "lat": 47.206079, "lon": 7.5356996, "radius": 1000}, {"id": 1711923360, "name": "Gallo Nero", "amenity": "restaurant", "lat": 47.2078324, "lon": 7.5365875, "radius": 1000}, {"id": 1711992336, "name": "Red John", "amenity": "pub", "lat": 47.2061179, "lon": 7.5358558, "radius": 1000}, {"id": 1711992359, "name": "Chutz", "amenity": "pub", "lat": 47.2061376, "lon": 7.5359472, "radius": 1000}, {"id": 1711992362, "name": "Cantina del Vino", "amenity": "bar", "lat": 47.2063339, "lon": 7.5365682, "radius": 1000}, {"id": 1713911589, "name": "Tavola Calda", "amenity": "fast_food", "lat": 47.2051584, "lon": 7.5409779, "radius": 1000}, {"id": 1713911594, "name": "Mediterane Leckereien", "amenity": "restaurant", "lat": 47.2064866, "lon": 7.5368386, "radius": 1000}, {"id": 1713911600, "name": "gassbar", "amenity": "bar", "lat": 47.2069995, "lon": 7.5371538, "radius": 1000}, {"id": 1715927529, "name": "Cantinetta Bindella", "amenity": "restaurant", "lat": 47.2073052, "lon": 7.5397437, "radius": 1000}, {"id": 1715927538, "name": "Amun Take-Away", "amenity": "fast_food", "lat": 47.2049508, "lon": 7.540494, "radius": 1000}, {"id": 1820083459, "name": "n/a", "amenity": "atm", "lat": 47.2083247, "lon": 7.5349187, "radius": 1000}, {"id": 1825231595, "name": "Kulturm", "amenity": "bar", "lat": 47.208557, "lon": 7.534694, "radius": 1000}, {"id": 1825232428, "name": "Jonny's Grill Bistro Bar", "amenity": "restaurant", "lat": 47.208657, "lon": 7.53491, "radius": 1000}, {"id": 1825234424, "name": "Barterre", "amenity": "bar", "lat": 47.208584, "lon": 7.535309, "radius": 1000}, {"id": 1831316797, "name": "Il Ponte del Sole", "amenity": "restaurant", "lat": 47.2049206, "lon": 7.5360605, "radius": 1000}, {"id": 1832954732, "name": "Berner Kantonalbank", "amenity": "bank", "lat": 47.2080958, "lon": 7.5356377, "radius": 1000}, {"id": 1833002623, "name": "Bank Cler", "amenity": "bank", "lat": 47.2072922, "lon": 7.5324641, "radius": 1000}, {"id": 2009081375, "name": "Raiffeisenbank Weissenstein", "amenity": "bank", "lat": 47.2082195, "lon": 7.5383002, "radius": 1000}, {"id": 2011278142, "name": "Barock Cafe", "amenity": "cafe", "lat": 47.2061416, "lon": 7.5361578, "radius": 1000}, {"id": 2336933387, "name": "Manora", "amenity": "restaurant", "lat": 47.2084144, "lon": 7.536277, "radius": 1000}, {"id": 2405737636, "name": "Postfinance", "amenity": "atm", "lat": 47.2079031, "lon": 7.5388512, "radius": 1000}, {"id": 2411862641, "name": "Hofer", "amenity": "cafe", "lat": 47.2080686, "lon": 7.5361749, "radius": 1000}, {"id": 2421227277, "name": "Bibliothek der Pädagogischen Hochschule", "amenity": "library", "lat": 47.212463, "lon": 7.5433011, "radius": 1000}, {"id": 2670017043, "name": "Hafebar", "amenity": "bar", "lat": 47.2056468, "lon": 7.5384611, "radius": 1000}, {"id": 2875320103, "name": "Il Peperoncino", "amenity": "restaurant", "lat": 47.2026083, "lon": 7.5468779, "radius": 1000},