address,price,lat,lon,property_id,rooms,area,cafe_count,cafe_present,restaurant_count,restaurant_present,bar_count,bar_present,pub_count,pub_present,fast_food_count,fast_food_present,school_count,school_present,university_count,university_present,library_count,library_present,hospital_count,hospital_present,clinic_count,clinic_present,pharmacy_count,pharmacy_present,bank_count,bank_present,atm_count,atm_present,bus_station_count,bus_station_present,parking_count,parking_present,total_amenities
"Bläsiring 10, 4057 Basel",,47.5683969,7.5871397,4002065802,4.5,115m²,64,1,208,1,57,1,15,1,56,1,3,1,2,1,13,1,1,1,1,1,28,1,13,1,26,1,0,0,11,1,498
"Erlenmattstr. 75, 4058 Basel",,47.5705088,7.6031744,4002039809,4.5,115m²,38,1,123,1,39,1,12,1,37,1,3,1,1,1,4,1,0,0,0,0,16,1,5,1,18,1,0,0,14,1,310
"Käferholzstrasse 60, 8057 Zürich",,47.402542600000004,8.532090116551142,4001947102,4.5,115m²,24,1,86,1,11,1,1,1,35,1,7,1,1,1,6,1,0,0,3,1,13,1,8,1,16,1,0,0,27,1,238
"Fahrnstrasse 25, 9402 Mörschwil",,47.4639669,9.432168388679248,4002080979,4.5,115m²,1,1,0,0,0,0,0,0,0,0,0,0,0,0,0,0,0,0,0,0,0,0,1,1,0,0,0,0,3,1,5
"Herrenhof 868, 9240 Niederglatt",,47.4240752,9.1598683,4002077676,4.5,115m²,0,0,0,0,0,0,0,0,0,0,0,0,0,0,0,0,0,0,0,0,0,0,0,0,1,1,0,0,0,0,1
"weidstrasse 11, 8620 Wetzikon ZH",,47.3313055,8.797855599364542,4002077272,4.5,115m²,10,1,14,1,6,1,1,1,9,1,5,1,0,0,2,1,0,0,2,1,3,1,5,1,2,1,1,1,18,1,78
"Muttenzerstrasse 129, 4127 Birsfelden",,47.5447189,7.62688715,4002059199,4.5,115m²,6,1,20,1,2,1,0,0,4,1,3,1,0,0,1,1,0,0,4,1,6,1,2,1,2,1,0,0,28,1,78
"Volkmarstrasse 15, 8006 Zürich",,47.38532765,8.543725200223658,4002058756,4.5,115m²,117,1,301,1,87,1,30,1,125,1,22,1,2,1,22,1,0,0,9,1,22,1,19,1,44,1,0,0,23,1,823
"Niklaus Konrad-Strasse 4, 4500 Solothurn",,47.204513902108786,7.539104019684887,4002053936,4.5,115m²,20,1,72,1,17,1,8,1,24,1,2,1,0,0,4,1,0,0,0,0,3,1,10,1,11,1,0,0,4,1,175
"Hölzliweg 9, 8405 Winterthur",,47.4859972,8.77093975,4002014835,4.5,115m²,3,1,10,1,2,1,1,1,5,1,6,1,0,0,0,0,0,0,0,0,3,1,1,1,2,1,0,0,24,1,57
"Weidmannstrasse 13, 8046 Zürich",,47.42325975,8.502611041329322,4001972648,4.5,115m²,3,1,13,1,1,1,0,0,5,1,1,1,0,0,1,1,0,0,0,0,2,1,0,0,3,1,0,0,3,1,32
"Bavurtga 9 (Altbau), 7402 Bonaduz",,,,4001756784,4.5,115m²,0,0,0,0,0,0,0,0,0,0,0,0,0,0,0,0,0,0,0,0,0,0,0,0,0,0,0,0,0,0,0
"Ahornweg 23, 2542 Pieterlen",,47.17285930609854,7.338240061537902,4001669568,4.5,115m²,0,0,3,1,0,0,1,1,0,0,0,0,0,0,0,0,0,0,0,0,0,0,0,0,1,1,0,0,1,1,6
"Via Sasso Corbaro 23, 6593 Cadenazzo",,46.15130057952928,8.944419531213565,4001668530,4.5,115m²,3,1,4,1,2,1,1,1,1,1,0,0,0,0,2,1,0,0,0,0,3,1,1,1,0,0,0,0,0,0,17
"Niklaus Konrad-Strasse 4, 4500 Solothurn",,47.204513902108786,7.539104019684887,4002053939,4.5,115m²,20,1,72,1,17,1,8,1,24,1,2,1,0,0,4,1,0,0,0,0,3,1,10,1,11,1,0,0,4,1,175
"Seeblickstr. 12, 9010 St. Gallen",,47.44059395,9.377784349999999,4002039822,4.5,115m²,4,1,20,1,10,1,1,1,4,1,4,1,0,0,4,1,0,0,3,1,0,0,0,0,2,1,0,0,26,1,78
"Bellerivestrasse 49, 8008 Zürich",,47.3566457,8.551761367777775,4002033013,4.5,115m²,45,1,114,1,12,1,4,1,30,1,10,1,0,0,4,1,0,0,3,1,16,1,11,1,12,1,0,0,11,1,272
"Ludwigstr. 5, 9010 St. Gallen",,47.43990895,9.377419517139657,4002028634,4.5,115m²,7,1,38,1,22,1,4,1,7,1,4,1,0,0,5,1,0,0,3,1,0,0,1,1,3,1,0,0,26,1,120
"Via G. Brentani 16, 6900 Lugano",,,,4002028631,4.5,115m²,0,0,0,0,0,0,0,0,0,0,0,0,0,0,0,0,0,0,0,0,0,0,0,0,0,0,0,0,0,0,0
"Via G. Brentani 16, 6900 Lugano",,,,4002028630,4.5,115m²,0,0,0,0,0,0,0,0,0,0,0,0,0,0,0,0,0,0,0,0,0,0,0,0,0,0,0,0,0,0,0
"Guggistrasse 14 A, 6005 Luzern",,47.0442778,8.2996906,4002006119,5.5,260m²,47,1,161,1,48,1,15,1,35,1,7,1,3,1,1,1,0,0,1,1,6,1,14,1,17,1,1,1,90,1,446
"Giessenplatz 8, 8600 Dübendorf",,47.4007256,8.613221243516005,4001991943,5.5,260m²,15,1,40,1,5,1,1,1,17,1,4,1,0,0,2,1,0,0,1,1,5,1,5,1,7,1,0,0,62,1,164
"Via Sasso Corbaro 19, 6593 Cadenazzo",,46.15130057952928,8.944419531213565,4001979018,5.5,260m²,3,1,4,1,2,1,1,1,1,1,0,0,0,0,2,1,0,0,0,0,3,1,1,1,0,0,0,0,0,0,17
"Chemin des Buclines, 1223 Cologny",,46.20714761985418,6.1937325206598555,4001950977,5.5,260m²,4,1,11,1,0,0,1,1,0,0,0,0,2,1,1,1,0,0,0,0,5,1,3,1,1,1,0,0,7,1,35
"Erlenmattstr. 67, 4058 Basel",,47.5702203,7.6026203,4001923522,5.5,260m²,38,1,125,1,40,1,12,1,37,1,3,1,1,1,4,1,0,0,0,0,16,1,5,1,18,1,0,0,14,1,313
"Fachstrasse 10A, 8942 Oberrieden",,47.2800669,8.5778404,4002065798,5.5,260m²,2,1,11,1,1,1,1,1,0,0,0,0,0,0,0,0,0,0,0,0,1,1,1,1,1,1,0,0,23,1,41
"Zentralstrasse 7, 5627 Besenbüren",,47.31347199382689,8.343174236937083,4002064944,5.5,260m²,0,0,1,1,0,0,0,0,0,0,1,1,0,0,0,0,0,0,0,0,0,0,0,0,0,0,0,0,1,1,3
"Zentralstrasse 7, 5627 Besenbüren",,47.31347199382689,8.343174236937083,4002064922,5.5,260m²,0,0,1,1,0,0,0,0,0,0,1,1,0,0,0,0,0,0,0,0,0,0,0,0,0,0,0,0,1,1,3
"Zentralstrasse 7, 5627 Besenbüren",,47.31347199382689,8.343174236937083,4002064878,5.5,260m²,0,0,1,1,0,0,0,0,0,0,1,1,0,0,0,0,0,0,0,0,0,0,0,0,0,0,0,0,1,1,3
"Anna-Heer-Strasse 16, 8057 Zürich",,47.3995807,8.541604131681714,4002062461,5.5,260m²,25,1,83,1,11,1,2,1,35,1,7,1,1,1,6,1,0,0,3,1,11,1,8,1,13,1,0,0,22,1,227
"Anna-Heer-Strasse 14, 8057 Zürich",,47.3997054,8.541471626099582,4002062455,5.5,260m²,25,1,83,1,11,1,2,1,35,1,7,1,1,1,6,1,0,0,3,1,11,1,8,1,13,1,0,0,22,1,227
"Niklaus Konrad-Strasse 4, 4500 Solothurn",,47.204513902108786,7.539104019684887,4002053937,5.5,260m²,20,1,72,1,17,1,8,1,24,1,2,1,0,0,4,1,0,0,0,0,3,1,10,1,11,1,0,0,4,1,175
"Sägestr. 78, 3098 Köniz",,46.923499199999995,7.412723249999999,4002038494,5.5,260m²,7,1,28,1,2,1,1,1,5,1,1,1,0,0,3,1,0,0,0,0,2,1,4,1,7,1,0,0,4,1,64
"Hermann-Lienhardstrasse, 2502 Biel, 2504 Biel",,47.15335971802163,7.266918113897638,4002037903,5.5,260m²,3,1,17,1,1,1,0,0,8,1,0,0,0,0,1,1,0,0,1,1,3,1,0,0,6,1,0,0,11,1,51
"Regensdorferstrasse 65, 8049 Zürich",,47.4057851,8.491669648527166,4002028608,5.5,260m²,4,1,18,1,1,1,0,0,18,1,2,1,0,0,5,1,0,0,0,0,3,1,2,1,4,1,0,0,9,1,66
"Anna-Heer-Strasse 14, 8057 Zürich",,47.3997054,8.541471626099582,4002026835,5.5,260m²,25,1,83,1,11,1,2,1,35,1,7,1,1,1,6,1,0,0,3,1,11,1,8,1,13,1,0,0,22,1,227
"Anna-Heer-Strasse 16, 8057 Zürich",,47.3995807,8.541604131681714,4002026834,5.5,260m²,25,1,83,1,11,1,2,1,35,1,7,1,1,1,6,1,0,0,3,1,11,1,8,1,13,1,0,0,22,1,227
"Käferholzstrasse 42, 8057 Zürich",,47.4019184,8.531843385657393,4002002445,5.5,260m²,24,1,82,1,14,1,1,1,38,1,6,1,1,1,6,1,0,0,2,1,13,1,8,1,17,1,0,0,26,1,238
"Anna-Heer-Strasse 14, 8057 Zürich",,47.3997054,8.541471626099582,4001923964,5.5,260m²,25,1,83,1,11,1,2,1,35,1,7,1,1,1,6,1,0,0,3,1,11,1,8,1,13,1,0,0,22,1,227
"Schwendetalstrasse 13, 9057 Schwende",,47.30717810735074,9.435084607601722,4001516464,5.5,260m²,0,0,1,1,0,0,0,0,0,0,0,0,0,0,0,0,0,0,1,1,0,0,1,1,1,1,0,0,2,1,6
"Hubenstrasse 19, 8057 Zürich",,47.4034427,8.559250955954088,4002075486,6.5,170m²,14,1,72,1,6,1,3,1,25,1,10,1,2,1,7,1,0,0,1,1,9,1,9,1,14,1,0,0,26,1,198
"11 rue neuve du Molard, 1204 Genève",,46.2033385,6.1491184,4002070837,6.5,170m²,140,1,513,1,83,1,27,1,93,1,8,1,12,1,22,1,0,0,5,1,55,1,39,1,27,1,0,0,37,1,1061
"Kirchgasse 4, 8524 Uesslingen",,47.580021599999995,8.829747663121518,4002066542,6.5,170m²,0,0,2,1,0,0,0,0,0,0,0,0,0,0,0,0,0,0,0,0,0,0,0,0,1,1,0,0,1,1,4
"Sonneggstr. 41, 8006 Zürich",,47.380462,8.545837108916057,4002065355,6.5,170m²,148,1,399,1,124,1,39,1,152,1,24,1,2,1,24,1,0,0,7,1,33,1,35,1,52,1,0,0,34,1,1073
"Bifitstrasse 80, 3145 Niederscherli",,46.881679649999995,7.382850310572916,4002065312,6.5,170m²,2,1,2,1,0,0,0,0,0,0,0,0,0,0,1,1,0,0,0,0,0,0,1,1,2,1,0,0,1,1,9
"Talstrasse 23, 4112 Flüh",,47.4860836,7.498951124978069,4002060877,6.5,170m²,2,1,6,1,0,0,0,0,0,0,1,1,0,0,0,0,0,0,0,0,0,0,0,0,0,0,0,0,3,1,12
"Oberdorfgasse 39, 4107 Ettingen",,47.4762327,7.5453864,4002060876,6.5,170m²,0,0,4,1,0,0,0,0,0,0,0,0,0,0,1,1,0,0,0,0,1,1,1,1,0,0,0,0,0,0,7
"Untere Grundgasse 11, 9500 Wil SG",,47.471886989331885,9.057533759287113,4002055241,6.5,170m²,4,1,27,1,4,1,1,1,1,1,3,1,0,0,3,1,0,0,0,0,3,1,7,1,4,1,0,0,2,1,59
"Centralstrasse 25, 2540 Grenchen",,47.19389355,7.395187744893286,4002038690,6.5,170m²,3,1,17,1,0,0,2,1,2,1,1,1,0,0,1,1,0,0,1,1,1,1,1,1,2,1,0,0,2,1,33
"Im Heugarten 47, 8617 Mönchaltorf",,47.3090093,8.725236969259775,4002038572,6.5,170m²,1,1,5,1,0,0,0,0,0,0,0,0,0,0,0,0,0,0,0,0,0,0,1,1,1,1,0,0,1,1,9
"Saumackerstrasse 28, 8048 Zürich",,47.3887156,8.488407815217391,4002021063,6.5,170m²,24,1,79,1,2,1,2,1,32,1,15,1,0,0,1,1,0,0,1,1,7,1,6,1,13,1,0,0,20,1,202
"Seestrasse 51, 8805 Richterswil",,47.2124572,8.702375165932201,4002012549,6.5,170m²,2,1,13,1,1,1,0,0,2,1,0,0,0,0,1,1,0,0,0,0,1,1,0,0,2,1,0,0,3,1,25
"Seestrasse 623, 8706 Meilen",,47.267748350000005,8.642523801279976,4002007176,6.5,170m²,0,0,4,1,0,0,0,0,2,1,1,1,0,0,0,0,0,0,0,0,2,1,4,1,1,1,0,0,2,1,16
"Föhrlibuckstrasse 7, 8304 Wallisellen",,47.409209700000005,8.603307650000005,4002002381,6.5,170m²,14,1,43,1,4,1,1,1,16,1,3,1,0,0,3,1,0,0,1,1,6,1,6,1,17,1,0,0,57,1,171
"Schlösslistrasse 13, 8044 Zürich",,47.385263,8.556671469917257,4001994154,6.5,170m²,34,1,87,1,7,1,4,1,36,1,14,1,1,1,17,1,0,0,3,1,7,1,3,1,15,1,0,0,12,1,240
"Via Capriccio 16, 6855 Stabio",,45.848677963641954,8.933513949249786,4001986951,6.5,170m²,0,0,4,1,3,1,0,0,1,1,0,0,0,0,2,1,0,0,2,1,3,1,1,1,1,1,0,0,0,0,17
"Sonneggstr. 41, 8006 Zürich",,47.380462,8.545837108916057,4001983883,6.5,170m²,148,1,399,1,124,1,39,1,152,1,24,1,2,1,24,1,0,0,7,1,33,1,35,1,52,1,0,0,34,1,1073
"Underem Berg 9, 8475 Ossingen",,47.61406635,8.722711651898727,4001978739,6.5,170m²,1,1,1,1,0,0,0,0,0,0,2,1,0,0,0,0,0,0,0,0,0,0,0,0,1,1,0,0,1,1,6
"Route de Cossonay 57, 1008 Prilly",,46.5371779,6.601186397571567,4001978380,6.5,170m²,8,1,46,1,5,1,2,1,16,1,2,1,3,1,5,1,0,0,2,1,12,1,5,1,4,1,0,0,24,1,134
"Hauptstrasse 24, 8114 Dänikon ZH",,47.4460003,8.406764497030906,4001972093,6.5,170m²,0,0,3,1,0,0,2,1,0,0,0,0,0,0,0,0,0,0,0,0,0,0,0,0,2,1,0,0,0,0,7
"Siewerdtstrasse 75, 8050 Zürich",,47.41222707079166,8.554573319832105,4001964230,2.5,33m²,23,1,112,1,18,1,4,1,36,1,19,1,3,1,4,1,0,0,3,1,13,1,8,1,19,1,0,0,47,1,309
"Passage Perdonnet 1, 1005 Lausanne",,46.520913,6.640209787160385,4001963201,2.5,33m²,56,1,227,1,42,1,30,1,83,1,9,1,2,1,15,1,0,0,3,1,28,1,17,1,30,1,1,1,30,1,573
"Rotwandstrasse 66, 8004 Zürich",,47.3758876,8.5294158,4001961027,2.5,33m²,184,1,570,1,169,1,54,1,209,1,24,1,2,1,21,1,0,0,11,1,38,1,48,1,61,1,0,0,37,1,1428
"Kapfstrasse 31, 8032 Zürich",,47.36278985,8.570155449194985,4001960413,2.5,33m²,26,1,58,1,5,1,2,1,6,1,7,1,0,0,2,1,0,0,4,1,12,1,5,1,10,1,0,0,14,1,151
"Wallenrütistrasse 16, 8234 Stetten SH",,47.73463605,8.656805457356477,4001889258,2.5,33m²,0,0,3,1,0,0,0,0,0,0,0,0,0,0,0,0,0,0,0,0,0,0,0,0,0,0,0,0,3,1,6
"Hinterbergstrasse 106, 8044 Zürich",,47.38514105,8.559907746084386,4001869489,2.5,33m²,22,1,57,1,1,1,1,1,15,1,14,1,1,1,11,1,0,0,1,1,6,1,2,1,8,1,0,0,8,1,147
"Spindelstrasse 9, 8041 Zürich",,47.33939796163503,8.518220321786435,4001765417,2.5,33m²,5,1,17,1,2,1,2,1,4,1,1,1,0,0,1,1,0,0,0,0,3,1,2,1,2,1,0,0,3,1,42
"Kreuzstrasse 3a, 3052 Zollikofen",,46.996241399986204,7.46113435005046,4001731221,2.5,33m²,1,1,11,1,1,1,0,0,5,1,0,0,0,0,2,1,0,0,0,0,2,1,3,1,6,1,0,0,13,1,44
"Kreuzstrasse 5, 3052 Zollikofen",,46.997130150000004,7.460558053618102,4001731198,2.5,33m²,1,1,11,1,1,1,0,0,5,1,0,0,0,0,2,1,0,0,0,0,2,1,3,1,6,1,0,0,13,1,44
"Grabenweg 15, 8484 Weisslingen",,47.42847146408095,8.769254069734341,4001671881,2.5,33m²,0,0,3,1,0,0,0,0,1,1,0,0,0,0,0,0,0,0,0,0,0,0,0,0,1,1,0,0,24,1,29
"Asylstrasse 14, 8953 Dietikon",,47.40164435,8.405244750457825,4001213834,2.5,33m²,8,1,28,1,7,1,2,1,21,1,0,0,0,0,0,0,0,0,0,0,3,1,5,1,6,1,0,0,19,1,99
"Nauengasse 14, 8427 Rorbas",,47.5326945,8.576552032786482,4002080956,2.5,33m²,1,1,6,1,0,0,0,0,1,1,2,1,0,0,0,0,0,0,0,0,0,0,0,0,1,1,0,0,10,1,21
6353 Weggis,,47.03189628530987,8.433771373374139,4002076708,2.5,33m²,2,1,4,1,1,1,0,0,1,1,1,1,0,0,1,1,0,0,0,0,1,1,0,0,1,1,0,0,11,1,23
"Zollstrasse 14, 8219 Trasadingen",,47.66409265,8.433804350000003,4002067496,2.5,33m²,2,1,4,1,0,0,0,0,1,1,0,0,0,0,0,0,0,0,0,0,0,0,0,0,0,0,0,0,0,0,7
"Käsereistrasse 2 / 4 / 6, 8919 Rottenschwil",,47.315124460676564,8.363178536793532,4002065576,2.5,33m²,0,0,1,1,0,0,0,0,0,0,1,1,0,0,0,0,0,0,0,0,0,0,0,0,0,0,0,0,1,1,3
"Ilbachstrasse 14, 4228 Erschwil",,47.3750290204464,7.536895680856094,4002064525,2.5,33m²,0,0,1,1,0,0,0,0,0,0,0,0,0,0,0,0,0,0,0,0,0,0,0,0,0,0,0,0,1,1,2
"Rietstrasse 6, 8702 Zollikon",,47.3461825,8.576322881476464,4002062055,2.5,33m²,6,1,13,1,2,1,1,1,1,1,3,1,0,0,1,1,0,0,4,1,1,1,1,1,4,1,0,0,8,1,45
"Rue des Epinettes, 1227 Carouge",,46.18874213266147,6.137177738468982,4002059679,2.5,33m²,55,1,261,1,34,1,7,1,37,1,5,1,13,1,19,1,0,0,5,1,32,1,20,1,6,1,0,0,50,1,544
"Röschenzerstrasse, 4053 Basel",,47.54061313569169,7.587552213860931,4002059059,2.5,33m²,35,1,109,1,17,1,7,1,21,1,6,1,3,1,8,1,0,0,6,1,21,1,21,1,17,1,0,0,15,1,286
"Untere Grundgasse 11, 9500 Wil SG",,47.471886989331885,9.057533759287113,4002055240,2.5,33m²,4,1,27,1,4,1,1,1,1,1,3,1,0,0,3,1,0,0,0,0,3,1,7,1,4,1,0,0,2,1,59
"Untere Grundgasse 11, 9500 Wil SG",,47.471886989331885,9.057533759287113,4002055239,4.5,170m²,4,1,27,1,4,1,1,1,1,1,3,1,0,0,3,1,0,0,0,0,3,1,7,1,4,1,0,0,2,1,59
"Böndlerstrasse 54, 8802 Kilchberg ZH",,47.31596745,8.54880834858756,4002049676,4.5,170m²,3,1,12,1,0,0,0,0,1,1,3,1,0,0,1,1,0,0,3,1,2,1,2,1,2,1,0,0,8,1,37
"Grossfeldstrasse 7, 6010 Kriens",,47.0332402,8.283929931561875,4002045481,4.5,170m²,7,1,20,1,2,1,0,0,6,1,0,0,1,1,1,1,0,0,0,0,4,1,3,1,3,1,0,0,55,1,102
"Gmeindrütistrasse 11, 8630 Rüti ZH",,47.26159345881681,8.867779674601445,4002028503,4.5,170m²,4,1,21,1,2,1,0,0,7,1,1,1,0,0,0,0,0,0,1,1,1,1,3,1,5,1,1,1,27,1,73
"Chemin de Chamblandes 55, 1009 Pully",,46.5081511,6.644447980223605,4001984340,4.5,170m²,14,1,92,1,14,1,5,1,24,1,6,1,0,0,1,1,0,0,1,1,11,1,8,1,11,1,0,0,11,1,198
"Sonneggstr. 41, 8006 Zürich",,47.380462,8.545837108916057,4001983884,4.5,170m²,148,1,399,1,124,1,39,1,152,1,24,1,2,1,24,1,0,0,7,1,33,1,35,1,52,1,0,0,34,1,1073
"Weiherweg 38, 4054 Basel",,47.5537867,7.5761886,4001979979,4.5,170m²,67,1,188,1,42,1,7,1,41,1,10,1,1,1,19,1,1,1,7,1,36,1,23,1,25,1,0,0,14,1,481
"Hermann-Lienhard-Strasse 1e, 2502 Biel, 2505 Biel",,,,4001979606,4.5,170m²,0,0,0,0,0,0,0,0,0,0,0,0,0,0,0,0,0,0,0,0,0,0,0,0,0,0,0,0,0,0,0
"Hermann-Lienhard-Strasse 1e, 2502 Biel, 2505 Biel",,,,4001957145,4.5,170m²,0,0,0,0,0,0,0,0,0,0,0,0,0,0,0,0,0,0,0,0,0,0,0,0,0,0,0,0,0,0,0
"Rotwandstrasse 66, 8004 Zürich",,47.3758876,8.5294158,4001950379,4.5,170m²,184,1,570,1,169,1,54,1,209,1,24,1,2,1,21,1,0,0,11,1,38,1,48,1,61,1,0,0,37,1,1428
"Grabenweg 17, 8484 Weisslingen",,47.4296268,8.76936175209196,4001840960,4.5,170m²,0,0,3,1,0,0,0,0,1,1,0,0,0,0,0,0,0,0,0,0,0,0,0,0,1,1,0,0,25,1,30
1012 Lausanne,,46.525320238787025,6.654456749929478,4001508481,4.5,170m²,10,1,68,1,10,1,7,1,12,1,5,1,1,1,8,1,0,0,0,0,8,1,3,1,3,1,0,0,21,1,156
"Motorenstrasse, 8005 Zürich",,47.38434396427632,8.528439931722138,4002078840,4.5,170m²,132,1,413,1,129,1,34,1,167,1,24,1,1,1,8,1,0,0,12,1,30,1,18,1,52,1,0,0,39,1,1059
"St. Alban-Anlage 58, 4052 Basel",,47.5525328,7.6023191,4002078647,4.5,170m²,64,1,209,1,50,1,7,1,52,1,11,1,4,1,18,1,0,0,9,1,28,1,30,1,30,1,0,0,26,1,538
"Höhenweg 61, 8965 Berikon",,47.35645731665608,8.364022193915872,4002075286,4.5,170m²,4,1,14,1,0,0,0,0,5,1,0,0,0,0,2,1,0,0,0,0,4,1,4,1,4,1,0,0,9,1,46
"Avenue des Alpes 5, 1006 Lausanne",,46.51475925,6.638347572447524,4002073492,4.5,170m²,53,1,226,1,40,1,30,1,75,1,13,1,2,1,13,1,0,0,3,1,22,1,16,1,30,1,1,1,19,1,543
"Seefeldstrasse 104, 8008 Zürich",,47.35929725,8.5526727,4002064667,4.5,170m²,53,1,146,1,18,1,6,1,31,1,8,1,0,0,7,1,0,0,3,1,18,1,19,1,16,1,0,0,15,1,340
"Karl Stauffer-Strasse, 8008 Zürich",,47.35517074021481,8.572854620731947,4002064533,4.5,170m²,18,1,36,1,4,1,2,1,4,1,4,1,0,0,2,1,0,0,6,1,8,1,2,1,6,1,0,0,10,1,102
"Schwenkelweg 11, 8645 Rapperswil-Jona",,47.2432192,8.811271526203207,4002057034,4.5,170m²,1,1,2,1,2,1,0,0,0,0,0,0,0,0,0,0,0,0,0,0,0,0,0,0,0,0,0,0,1,1,6
"Dorfstrasse 31, 5244 Birrhard",,47.4331612,8.2458127,4002055225,4.5,170m²,0,0,1,1,0,0,0,0,0,0,0,0,0,0,0,0,0,0,0,0,0,0,0,0,0,0,0,0,1,1,2
"Willikonerstrasse 46, 8618 Oetwil am See",,47.2673125,8.727074,4002073363,2.0,,0,0,3,1,0,0,0,0,1,1,0,0,0,0,1,1,0,0,0,0,0,0,0,0,2,1,1,1,0,0,8
"Rue de Contamines 16, 1206 Genève",,46.1967836,6.1559984,4002073081,2.0,,86,1,314,1,48,1,9,1,49,1,6,1,7,1,17,1,0,0,4,1,47,1,33,1,7,1,0,0,25,1,652
"Landenbergstrasse 3a, 6005 Lucerne",,47.04267545,8.320934090220995,4002070890,2.0,,30,1,105,1,31,1,5,1,23,1,4,1,2,1,1,1,0,0,1,1,6,1,9,1,13,1,1,1,77,1,308
1922 Salvan,,46.12434650149254,7.018213599402985,4002068949,2.0,,2,1,3,1,0,0,0,0,0,0,1,1,0,0,1,1,0,0,0,0,0,0,1,1,1,1,0,0,1,1,10
"Allée Charles Edouard Guillaume 5, 1723 Marly",,46.77652935478131,7.155262363082695,4002067868,2.0,,2,1,6,1,0,0,0,0,2,1,4,1,0,0,1,1,0,0,2,1,3,1,0,0,4,1,0,0,27,1,51
"Kühneweg 20, 6020 Emmen",,47.0802389,8.277798730573746,4002067484,2.0,,7,1,30,1,4,1,1,1,9,1,1,1,0,0,0,0,0,0,0,0,2,1,4,1,12,1,0,0,27,1,97
"Gaissbergstrasse 49, 8280 Kreuzlingen",,47.640377549134726,9.175881070346644,4002065892,2.0,,2,1,15,1,5,1,0,0,4,1,7,1,0,0,1,1,0,0,0,0,2,1,7,1,4,1,0,0,9,1,56
"Ergatenweg 25, 8583 Sulgen",,47.53354833215814,9.186860367925838,4002065159,2.0,,1,1,8,1,1,1,0,0,1,1,2,1,0,0,0,0,0,0,0,0,0,0,1,1,2,1,0,0,1,1,17
"Badenerstrasse 12, 8953 Dietikon",,47.40589815,8.39862565,4002057192,2.0,,6,1,31,1,6,1,2,1,22,1,0,0,0,0,0,0,0,0,0,0,3,1,5,1,6,1,0,0,18,1,99
"Seestrasse, 6204 Sempach",,47.137883811385855,8.19070639072205,4002057189,2.0,,0,0,6,1,2,1,1,1,2,1,0,0,0,0,2,1,0,0,0,0,1,1,2,1,1,1,0,0,4,1,21
"Rue Mauborget 6, 1003 Lausanne",,46.522865350000004,6.628976650364546,4002057165,2.0,,59,1,245,1,44,1,36,1,92,1,10,1,3,1,15,1,0,0,3,1,31,1,16,1,34,1,1,1,31,1,620
"Via San Gottardo 28, 6500 Bellinzona",,46.1522571,8.952995393471355,4002057133,2.0,,2,1,3,1,2,1,1,1,1,1,0,0,0,0,2,1,0,0,0,0,2,1,1,1,1,1,0,0,0,0,15
"Rainweg 1A, 4713 Matzendorf",,47.307523849999995,7.628185497248008,4002053590,2.0,,0,0,1,1,0,0,0,0,0,0,0,0,0,0,1,1,0,0,0,0,0,0,0,0,0,0,0,0,4,1,6
8107 Buchs ZH,,47.45711328414518,8.43730061365807,4002049788,2.0,,0,0,4,1,0,0,0,0,3,1,1,1,0,0,1,1,0,0,0,0,0,0,1,1,1,1,0,0,2,1,13
"Maurerweg 12, 2503 Biel",,47.1339541,7.2557085,4002039400,2.0,,34,1,92,1,32,1,1,1,41,1,14,1,3,1,4,1,0,0,4,1,12,1,10,1,21,1,0,0,46,1,314
"Engstringerstrasse 54, 8952 Schlieren",,47.4077604,8.448176698974663,4002034398,2.0,,0,0,34,1,2,1,1,1,12,1,1,1,0,0,2,1,0,0,2,1,4,1,3,1,6,1,0,0,15,1,82
8272 Ermatingen,,47.669418659730724,9.081911619706242,4002024740,2.0,,1,1,7,1,0,0,1,1,0,0,3,1,0,0,1,1,0,0,0,0,0,0,1,1,0,0,0,0,6,1,20
"Freiburgstrasse 446, 3018 Berna",,46.9332898,7.389619250795455,4002024325,2.0,,2,1,20,1,3,1,0,0,5,1,1,1,0,0,2,1,0,0,1,1,3,1,3,1,5,1,0,0,2,1,47
"Gamlikon 14, 8143 Stallikon",,47.31393665,8.494276606367318,4002018483,2.0,,2,1,1,1,0,0,0,0,0,0,0,0,0,0,0,0,0,0,0,0,0,0,0,0,0,0,0,0,1,1,4
"Route du Chasseur 30 bis, 1008 Prilly",,46.5369511202113,6.606352814058171,4002017354,2.0,,5,1,45,1,4,1,5,1,17,1,4,1,3,1,2,1,0,0,2,1,13,1,4,1,4,1,1,1,25,1,134
"Plaz, 7546 Ardez",,,,4002012452,8.5,300m²,0,0,0,0,0,0,0,0,0,0,0,0,0,0,0,0,0,0,0,0,0,0,0,0,0,0,0,0,0,0,0
"Seestrasse 136-142, 8707 Uetikon am See",,47.26182801772334,8.668122765104448,4002003120,8.5,300m²,1,1,3,1,1,1,0,0,1,1,1,1,0,0,1,1,0,0,0,0,1,1,0,0,2,1,0,0,3,1,14
8152 Opfikon,,47.429687660338985,8.568407220813558,4001995122,8.5,300m²,6,1,28,1,3,1,0,0,8,1,3,1,0,0,0,0,0,0,1,1,3,1,0,0,6,1,0,0,24,1,82
3780 Gstaad,,46.4761004,7.2873587,4001987343,8.5,300m²,0,0,11,1,0,0,0,0,0,0,0,0,0,0,0,0,0,0,0,0,1,1,1,1,2,1,0,0,5,1,20
"Dorfstrasse 14, 4206 Seewen SO",,47.435012,7.656622998231198,4001978241,8.5,300m²,0,0,2,1,0,0,0,0,0,0,1,1,0,0,0,0,0,0,0,0,0,0,0,0,1,1,0,0,0,0,4
"Champs Saint-Martin 41, 2942 Alle",,47.4229949,7.1260547,4001970470,8.5,300m²,0,0,0,0,0,0,0,0,0,0,0,0,0,0,0,0,0,0,0,0,0,0,1,1,2,1,0,0,0,0,3
"Tannwaldweg 6, 4112 Hofstetten-Flüh",,47.483485,7.493989299450808,4001956926,8.5,300m²,2,1,6,1,0,0,0,0,0,0,1,1,0,0,0,0,0,0,0,0,0,0,0,0,0,0,0,0,3,1,12
"Gotthardstrasse 1, 8248 Laufen-Uhwiesen",,47.6712717,8.637511549779248,4001936434,8.5,300m²,1,1,0,0,0,0,0,0,0,0,0,0,0,0,0,0,0,0,0,0,0,0,0,0,0,0,0,0,7,1,8
"Rotwandstrasse 66, 8004 Zürich",,47.3758876,8.5294158,4001915132,8.5,300m²,184,1,570,1,169,1,54,1,209,1,24,1,2,1,21,1,0,0,11,1,38,1,48,1,61,1,0,0,37,1,1428
"Seengerstrasse 28, 5706 Boniswil",,47.31804,8.1878031,4001910718,8.5,300m²,2,1,3,1,0,0,1,1,0,0,2,1,0,0,2,1,0,0,0,0,1,1,1,1,0,0,0,0,3,1,15
"Rotbuchstrasse 9, 8006 Zürich",,47.390825199999995,8.537652620686456,4001886542,8.5,300m²,62,1,184,1,41,1,11,1,89,1,16,1,1,1,11,1,0,0,2,1,16,1,4,1,28,1,0,0,18,1,483
"Dorfgasse 4, 8708 Männedorf",,47.2552406,8.688731842874493,4001867060,8.5,300m²,7,1,10,1,2,1,0,0,2,1,2,1,0,0,2,1,1,1,0,0,3,1,3,1,4,1,0,0,9,1,45
"Teichgässlein 9 / Webergasse 34, 4053 Basel",,,,4001518185,8.5,300m²,0,0,0,0,0,0,0,0,0,0,0,0,0,0,0,0,0,0,0,0,0,0,0,0,0,0,0,0,0,0,0
"Hottingerstrasse 38, 8032 Zürich",,47.369390949999996,8.553576490910046,4002081565,8.5,300m²,136,1,314,1,59,1,27,1,107,1,16,1,1,1,24,1,0,0,7,1,33,1,47,1,44,1,0,0,29,1,844
"Holzwiesstrasse 19, 8704 Herrliberg",,47.294893599999995,8.606714348304603,4002078292,8.5,300m²,1,1,7,1,1,1,0,0,1,1,0,0,0,0,2,1,0,0,0,0,0,0,0,0,0,0,0,0,5,1,17
"Kammermattweg 3, 4107 Ettingen",,47.4845896,7.5460237,4002077167,8.5,300m²,0,0,4,1,0,0,0,0,0,0,0,0,0,0,1,1,0,0,0,0,1,1,1,1,0,0,0,0,3,1,10
"Mostelbergstrasse 3B, 6417 Sattel",,47.0765973,8.6326847,4002075406,8.5,300m²,0,0,2,1,0,0,0,0,0,0,0,0,0,0,0,0,0,0,0,0,0,0,2,1,0,0,0,0,2,1,6
"Chemin du Devin 47B, 1012 Lausanne",,46.5316201,6.6519271,4002071005,8.5,300m²,9,1,43,1,4,1,2,1,8,1,3,1,1,1,8,1,0,0,2,1,9,1,4,1,3,1,0,0,26,1,122
"Rütistrasse 4, 8032 Zürich",,47.3685518,8.56076049670398,4002069592,8.5,300m²,78,1,192,1,38,1,19,1,44,1,14,1,1,1,20,1,0,0,4,1,20,1,15,1,24,1,0,0,19,1,488
"Allmannstrasse 55, 8052 Zürich",,47.4173434,8.551007195791241,4002066429,8.5,300m²,27,1,108,1,18,1,3,1,34,1,19,1,3,1,2,1,0,0,3,1,12,1,8,1,18,1,0,0,55,1,310
"Allmannstrasse 55, 8052 Zürich",,47.4173434,8.551007195791241,4002066402,4.5,121m²,27,1,108,1,18,1,3,1,34,1,19,1,3,1,2,1,0,0,3,1,12,1,8,1,18,1,0,0,55,1,310
"Reimen 2, 8775 Hätzingen",,46.9591892,9.032821053279804,4002059553,4.5,121m²,0,0,2,1,0,0,0,0,0,0,2,1,0,0,0,0,0,0,0,0,0,0,0,0,0,0,0,0,7,1,11
8623 Wetzikon ZH,,47.331947779107985,8.815287635054773,4002047825,4.5,121m²,6,1,9,1,4,1,1,1,5,1,4,1,0,0,1,1,0,0,2,1,2,1,4,1,2,1,0,0,21,1,61
"Aentenschnabel, 8353 Elgg",,47.4988302645021,8.863680082276126,4002038535,4.5,121m²,0,0,2,1,0,0,0,0,2,1,0,0,0,0,1,1,0,0,0,0,0,0,1,1,1,1,0,0,0,0,7
"Maurerweg 12, 2503 Biel",,47.1339541,7.2557085,4002038105,4.5,121m²,34,1,92,1,32,1,1,1,41,1,14,1,3,1,4,1,0,0,4,1,12,1,10,1,21,1,0,0,46,1,314
"Hauptstrasse 58, 8553 Hüttlingen",,47.57700697316777,8.963391446178802,4002037735,4.5,121m²,0,0,2,1,0,0,0,0,0,0,0,0,0,0,0,0,0,0,0,0,0,0,0,0,0,0,0,0,0,0,2
"Seefeldstrasse 231, 8008 Zürich",,47.3515728,8.5610673,4002024967,4.5,121m²,20,1,52,1,4,1,2,1,5,1,4,1,0,0,2,1,0,0,5,1,6,1,1,1,7,1,0,0,8,1,116
"Mülhauserstrasse, 4056 Basel",,47.56715671323375,7.577037294298449,4002006222,4.5,121m²,56,1,170,1,46,1,8,1,47,1,3,1,1,1,12,1,1,1,1,1,30,1,10,1,21,1,0,0,14,1,420
"Mittlere Gstücktstrasse 38, 8180 Bülach",,47.52273835,8.550038899999999,4001978874,4.5,121m²,1,1,21,1,2,1,1,1,5,1,0,0,0,0,1,1,0,0,0,0,2,1,7,1,2,1,0,0,8,1,50
"Dorfstrasse 14, 4206 Seewen SO",,47.435012,7.656622998231198,4001978238,4.5,121m²,0,0,2,1,0,0,0,0,0,0,1,1,0,0,0,0,0,0,0,0,0,0,0,0,1,1,0,0,0,0,4
"Ringstrasse 4d (21800), 8737 Gommiswald",,,,4001978094,4.5,121m²,0,0,0,0,0,0,0,0,0,0,0,0,0,0,0,0,0,0,0,0,0,0,0,0,0,0,0,0,0,0,0
"Henri-Mussard, 1208 Genève",,46.19796704258514,6.162689956283832,4001977767,4.5,121m²,44,1,188,1,19,1,6,1,27,1,5,1,1,1,12,1,1,1,1,1,33,1,15,1,3,1,0,0,15,1,370
"Eichelwiesenstrasse 4, 8305 Dietlikon",,47.4205726,8.620340136638688,4001964391,4.5,121m²,4,1,20,1,0,0,0,0,8,1,1,1,0,0,2,1,0,0,0,0,3,1,1,1,6,1,0,0,106,1,151
"Rotwandstrasse 66, 8004 Zürich",,47.3758876,8.5294158,4001950380,4.5,121m²,184,1,570,1,169,1,54,1,209,1,24,1,2,1,21,1,0,0,11,1,38,1,48,1,61,1,0,0,37,1,1428
"Rotwandstrasse 66, 8004 Zürich",,47.3758876,8.5294158,4001950370,4.5,121m²,184,1,570,1,169,1,54,1,209,1,24,1,2,1,21,1,0,0,11,1,38,1,48,1,61,1,0,0,37,1,1428
"Bildstrasse, 9030 Abtwil SG",,47.42004857576465,9.31458970304635,4001933447,4.5,121m²,2,1,8,1,0,0,1,1,3,1,2,1,0,0,1,1,0,0,0,0,1,1,3,1,1,1,0,0,35,1,57
"Poststrasse 19, 2504 Biel/Bienne",,47.145834431576944,7.271972315313917,4001874968,4.5,121m²,3,1,18,1,1,1,0,0,8,1,1,1,0,0,2,1,0,0,1,1,3,1,0,0,6,1,0,0,16,1,59
"Birkenstrasse 2, 4144 Arlesheim",,47.497051400000004,7.564314100000001,4002065974,4.5,121m²,1,1,6,1,0,0,1,1,0,0,0,0,0,0,0,0,0,0,0,0,2,1,1,1,2,1,0,0,10,1,23
"Klotenerstrasse 78, 8303 Bassersdorf",,47.444986549999996,8.622518934880409,4002064068,4.5,121m²,1,1,9,1,2,1,0,0,1,1,3,1,0,0,1,1,0,0,0,0,1,1,3,1,4,1,0,0,46,1,71
3280 Murten,,46.92391518978583,7.1162434390444815,4002063200,4.5,121m²,4,1,29,1,2,1,0,0,2,1,1,1,0,0,1,1,0,0,0,0,4,1,5,1,3,1,0,0,2,1,53
"Rainweg 1B, 4713 Matzendorf",,47.307480999999996,7.627894885210045,4002053448,5.5,150m²,0,0,1,1,0,0,0,0,0,0,0,0,0,0,1,1,0,0,0,0,0,0,0,0,0,0,0,0,4,1,6
"Maurerweg 12, 2503 Biel",,47.1339541,7.2557085,4002039406,5.5,150m²,34,1,92,1,32,1,1,1,41,1,14,1,3,1,4,1,0,0,4,1,12,1,10,1,21,1,0,0,46,1,314
"Schöngrundweg 6, 4144 Arlesheim",,47.4881609,7.6231777,4002035071,5.5,150m²,1,1,16,1,0,0,0,0,1,1,1,1,0,0,0,0,0,0,0,0,4,1,6,1,3,1,0,0,2,1,34
"Landauerstrasse 23a, 4058 Basel",,47.56393,7.627327,4001968987,5.5,150m²,10,1,14,1,2,1,0,0,2,1,3,1,0,0,4,1,0,0,0,0,4,1,3,1,2,1,0,0,23,1,67
"Rue du Jura 7, 1196 Gland",,46.424138049999996,6.263368286486378,4001908556,5.5,150m²,1,1,9,1,0,0,1,1,4,1,0,0,0,0,2,1,0,0,0,0,5,1,1,1,1,1,0,0,12,1,36
"Baselstrasse 47, 4500 Solothurn",,47.2121206,7.5451733,4001899051,5.5,150m²,20,1,77,1,17,1,8,1,24,1,2,1,0,0,4,1,0,0,0,0,4,1,11,1,13,1,0,0,6,1,186
"Chemin de Cuard 2, 2022 Bevaix",,46.9319525,6.8128406,4001891329,5.5,150m²,0,0,3,1,0,0,1,1,0,0,0,0,0,0,1,1,0,0,0,0,1,1,1,1,2,1,0,0,2,1,11
"Rue Auguste-Quiquerez 16, 2800 Delémont",,47.3673684,7.3582787,4001886594,5.5,150m²,7,1,29,1,14,1,2,1,3,1,4,1,0,0,5,1,0,0,1,1,8,1,13,1,13,1,1,1,10,1,110
"Militärstrasse 106, 8004 Zürich",,47.3792981,8.528828562868632,4001886453,5.5,150m²,175,1,558,1,169,1,53,1,200,1,24,1,1,1,21,1,0,0,11,1,37,1,42,1,61,1,0,0,38,1,1390
"Poststrasse 19, 2504 Biel/Bienne",,47.14728622331503,7.2753752392954185,4000806194,5.5,150m²,3,1,17,1,1,1,0,0,7,1,1,1,0,0,2,1,0,0,1,1,3,1,0,0,6,1,0,0,15,1,56
"Gaichtstrasse 1, 2512 Tüscherz-Alfermée",,47.118595,7.202422229793028,4002064574,5.5,150m²,0,0,1,1,0,0,0,0,0,0,0,0,0,0,0,0,0,0,0,0,0,0,0,0,0,0,0,0,2,1,3
"Place du Bourg-de-Four, 1204 Genève",,46.2009088,6.1495952,4002063419,5.5,150m²,137,1,510,1,82,1,26,1,92,1,8,1,13,1,22,1,0,0,6,1,57,1,39,1,25,1,0,0,36,1,1053
"Chemin de Bonne-Espérance, 1006 Lausanne",,46.5137693,6.64813095,4002061790,5.5,150m²,34,1,132,1,21,1,16,1,34,1,9,1,1,1,6,1,0,0,1,1,16,1,13,1,20,1,1,1,11,1,315
"Route des Arsenaux, 1700 Fribourg",,46.80234615042749,7.151277144027662,4002059774,5.5,150m²,24,1,92,1,14,1,6,1,37,1,3,1,6,1,10,1,1,1,0,0,12,1,13,1,14,1,0,0,45,1,277
"Hasenmattstrasse 1, 2540 Grenchen",,47.1974917,7.405668,4002054786,5.5,150m²,2,1,16,1,0,0,2,1,2,1,1,1,0,0,1,1,0,0,1,1,1,1,2,1,2,1,0,0,3,1,33
"Maurerweg 12, 2503 Biel",,47.1339541,7.2557085,4002038113,5.5,150m²,34,1,92,1,32,1,1,1,41,1,14,1,3,1,4,1,0,0,4,1,12,1,10,1,21,1,0,0,46,1,314
"Wankdorffeldstrasse 103, 3014 Bern",,46.9645669,7.4576422,4002023693,5.5,150m²,13,1,73,1,4,1,2,1,17,1,8,1,0,0,5,1,0,0,0,0,5,1,1,1,10,1,0,0,21,1,159
"Seestrasse 136-142, 8707 Uetikon am See",,47.2600708,8.6734324,4002003227,5.5,150m²,5,1,7,1,2,1,0,0,1,1,1,1,0,0,1,1,0,0,0,0,2,1,1,1,2,1,0,0,4,1,26
"Rue Charles-Giron 14, 1203 Genève",,46.2062582,6.1287819,4001991978,5.5,150m²,101,1,324,1,62,1,19,1,56,1,12,1,11,1,12,1,1,1,5,1,35,1,27,1,26,1,0,0,34,1,725
"Avenue Louis-Casaï, 1215 Genève 15 Aéroport",,,,4001966950,5.5,150m²,0,0,0,0,0,0,0,0,0,0,0,0,0,0,0,0,0,0,0,0,0,0,0,0,0,0,0,0,0,0,0
"Wibergstrasse 39, 8180 Bülach",,47.521282022681284,8.549109135744374,4001924622,5.5,150m²,1,1,22,1,2,1,1,1,6,1,0,0,0,0,1,1,0,0,0,0,3,1,7,1,2,1,0,0,8,1,53
"Wibergstrasse 39, 8180 Bülach",,47.521282022681284,8.549109135744374,4001924620,5.5,150m²,1,1,22,1,2,1,1,1,6,1,0,0,0,0,1,1,0,0,0,0,3,1,7,1,2,1,0,0,8,1,53
"Wibergstrasse 41, 8180 Bülach",,47.521282022681284,8.549109135744374,4001924615,5.5,150m²,1,1,22,1,2,1,1,1,6,1,0,0,0,0,1,1,0,0,0,0,3,1,7,1,2,1,0,0,8,1,53
"Wibergstrasse 41, 8180 Bülach",,47.521282022681284,8.549109135744374,4001924611,5.5,150m²,1,1,22,1,2,1,1,1,6,1,0,0,0,0,1,1,0,0,0,0,3,1,7,1,2,1,0,0,8,1,53
"Wibergstrasse 41, 8180 Bülach",,47.521282022681284,8.549109135744374,4001924600,5.5,150m²,1,1,22,1,2,1,1,1,6,1,0,0,0,0,1,1,0,0,0,0,3,1,7,1,2,1,0,0,8,1,53
"Wibergstrasse 41, 8180 Bülach",,47.521282022681284,8.549109135744374,4001924553,5.5,150m²,1,1,22,1,2,1,1,1,6,1,0,0,0,0,1,1,0,0,0,0,3,1,7,1,2,1,0,0,8,1,53
"Rue Rousseau, 1201 Genève",,46.2071402,6.143698,4001913747,5.5,150m²,146,1,524,1,86,1,28,1,86,1,11,1,12,1,20,1,0,0,6,1,53,1,39,1,30,1,0,0,39,1,1080
"Höchackerweg 4, 4923 Wynau",,47.26100595,7.8245193,4001867340,5.5,150m²,0,0,1,1,0,0,0,0,0,0,1,1,0,0,1,1,0,0,0,0,1,1,1,1,1,1,0,0,4,1,10
"Schulstrasse 31, 4132 Muttenz",,47.5266272,7.648421209118317,4002077169,5.5,150m²,0,0,14,1,1,1,0,0,3,1,4,1,0,0,2,1,0,0,1,1,2,1,2,1,1,1,0,0,9,1,39
"Sonnenbergstrasse 16, 8032 Zürich",,47.3659841,8.56693383994975,4002073739,5.5,150m²,39,1,84,1,7,1,3,1,15,1,10,1,0,0,7,1,0,0,3,1,17,1,7,1,15,1,0,0,16,1,223
"Poststrasse 31, 8957 Spreitenbach",,47.42050555,8.361766678327186,4002066308,5.5,150m²,5,1,11,1,2,1,0,0,11,1,0,0,0,0,1,1,0,0,0,0,2,1,2,1,4,1,0,0,4,1,42
"Ringstrasse 4d (21800), 8737 Gommiswald",,,,4001978093,5.5,150m²,0,0,0,0,0,0,0,0,0,0,0,0,0,0,0,0,0,0,0,0,0,0,0,0,0,0,0,0,0,0,0
"Via Schlifras 85, 7130 Ilanz",,46.7676473,9.2055129,4001978069,5.5,150m²,2,1,11,1,1,1,0,0,1,1,0,0,0,0,1,1,1,1,0,0,2,1,2,1,1,1,1,1,4,1,27
"Via Schlifras 85, 7130 Ilanz",,46.7676473,9.2055129,4001978064,5.5,150m²,2,1,11,1,1,1,0,0,1,1,0,0,0,0,1,1,1,1,0,0,2,1,2,1,1,1,1,1,4,1,27
"Via Schlifras 85, 7130 Ilanz",,46.7676473,9.2055129,4001978062,5.5,150m²,2,1,11,1,1,1,0,0,1,1,0,0,0,0,1,1,1,1,0,0,2,1,2,1,1,1,1,1,4,1,27
"Poststrasse 31, 8957 Spreitenbach",,47.42050555,8.361766678327186,4001957352,5.5,150m²,5,1,11,1,2,1,0,0,11,1,0,0,0,0,1,1,0,0,0,0,2,1,2,1,4,1,0,0,4,1,42
"Steinfeldstrasse 19b, 8153 Rümlang",,47.452723000000006,8.527081449999995,4001939686,5.5,150m²,1,1,7,1,1,1,0,0,3,1,0,0,0,0,0,0,0,0,0,0,1,1,1,1,5,1,0,0,3,1,22
"Chemin des Charrières 6, 2024 St-Aubin-Sauges",,46.8944959,6.7709695,4001667738,5.5,150m²,0,0,4,1,0,0,0,0,0,0,1,1,0,0,1,1,0,0,0,0,1,1,2,1,0,0,0,0,4,1,13
"Gyrhaldenstrasse 27, 4416 Bubendorf",,47.4521343,7.7431937,4001646195,5.5,150m²,1,1,2,1,0,0,0,0,1,1,0,0,0,0,0,0,0,0,0,0,2,1,1,1,0,0,0,0,1,1,8
"Gyrhaldenstrasse 33, 4416 Bubendorf",,47.4526658,7.7444548,4001118224,5.5,150m²,1,1,2,1,0,0,0,0,1,1,0,0,0,0,0,0,0,0,0,0,2,1,1,1,0,0,0,0,1,1,8
"Langenhagweg 21, 4123 Allschwil",,47.5484224,7.5557557,4002078666,4.0,81m²,9,1,22,1,1,1,0,0,3,1,2,1,0,0,3,1,0,0,0,0,6,1,4,1,6,1,0,0,5,1,61
"Baumgartenweg 10, 4106 Therwil",,47.499707099999995,7.5589598512998055,4002077166,4.0,81m²,1,1,7,1,0,0,1,1,0,0,1,1,0,0,0,0,0,0,0,0,3,1,1,1,2,1,0,0,12,1,28
"Via Cantonale 56, 6987 Caslano",,45.97839905,8.875652657155985,4002039300,4.0,81m²,2,1,11,1,2,1,0,0,3,1,0,0,0,0,1,1,0,0,0,0,2,1,1,1,1,1,0,0,2,1,25
"Via al Ticino 29, 6514 Sementina",,46.1802401,8.9939792,4002039297,4.0,81m²,2,1,9,1,3,1,1,1,2,1,0,0,0,0,1,1,0,0,0,0,2,1,2,1,2,1,0,0,5,1,29
"Blumenstrasse 1, 8192 Glattfelden",,47.5571712,8.507506,4002037523,4.0,81m²,1,1,3,1,0,0,0,0,0,0,0,0,0,0,0,0,0,0,0,0,0,0,0,0,1,1,0,0,7,1,12
"Fallenacker 4, 5504 Othmarsingen",,47.40558355,8.218590902152911,4002028753,4.0,81m²,0,0,5,1,0,0,0,0,1,1,0,0,0,0,1,1,0,0,0,0,0,0,0,0,1,1,0,0,5,1,13
"Eichwiesstrasse 18a, 8645 Jona",,47.225264010124754,8.835544654699017,4001874800,4.0,81m²,13,1,37,1,5,1,3,1,18,1,8,1,0,0,3,1,0,0,6,1,6,1,8,1,14,1,0,0,10,1,131
"Brombacherstrasse 44, 4057 Basel",,47.5698504,7.5973694,4001840033,4.0,81m²,48,1,162,1,54,1,13,1,48,1,4,1,1,1,5,1,0,0,0,0,21,1,8,1,21,1,0,0,18,1,403
"Zollikerstrasse 275, 8008 Zürich",,47.34689855,8.567435347638552,4001822147,4.0,81m²,9,1,28,1,3,1,1,1,2,1,3,1,0,0,2,1,0,0,5,1,2,1,1,1,4,1,0,0,8,1,68
"Tödistrasse 63, 8810 Horgen",,47.2589398,8.5861078,4001783150,4.0,81m²,2,1,21,1,3,1,1,1,2,1,2,1,0,0,1,1,0,0,2,1,3,1,5,1,4,1,0,0,14,1,60
"Berneckerstrasse 15/17, 9434 Au SG",,47.4124036,9.6253475,4001644316,4.0,81m²,5,1,14,1,0,0,0,0,4,1,4,1,0,0,3,1,0,0,0,0,2,1,7,1,6,1,0,0,24,1,69
"Wesemlinstrasse 33 (Neubau), 6006 Luzern",,,,4002065994,4.0,81m²,0,0,0,0,0,0,0,0,0,0,0,0,0,0,0,0,0,0,0,0,0,0,0,0,0,0,0,0,0,0,0
"Baselstrasse 7b, 4144 Arlesheim",,47.49603185,7.620555079923935,4002065395,4.0,81m²,1,1,14,1,0,0,0,0,1,1,1,1,0,0,0,0,0,0,0,0,4,1,5,1,3,1,0,0,2,1,31
"Flawilerstrasse 48, 9242 Oberuzwil",,47.4300118,9.1231916,4002053910,4.0,81m²,0,0,8,1,1,1,0,0,5,1,0,0,0,0,1,1,0,0,0,0,1,1,2,1,4,1,0,0,4,1,26
"Hiltiwaldweg 8, 5443 Niederrohrdorf",,47.425804850000006,8.300059147209826,4002004584,4.0,81m²,2,1,5,1,0,0,0,0,2,1,1,1,0,0,0,0,0,0,0,0,2,1,4,1,3,1,0,0,8,1,27
"Seestrasse 136-142, 8707 Uetikon am See",,47.2600708,8.6734324,4002003119,4.0,81m²,5,1,7,1,2,1,0,0,1,1,1,1,0,0,1,1,0,0,0,0,2,1,1,1,2,1,0,0,4,1,26
1010 Lausanne,,46.53844260968495,6.652783954259043,4001957250,4.0,81m²,5,1,16,1,1,1,0,0,2,1,1,1,0,0,4,1,0,0,2,1,11,1,4,1,3,1,0,0,22,1,71
"Giessliweg 81, 4057 Basel",,47.5802385,7.5916833,4001820421,4.0,81m²,18,1,76,1,21,1,8,1,13,1,1,1,0,0,3,1,0,0,0,0,8,1,3,1,10,1,0,0,8,1,169
"Seestrasse 55, 8266 Steckborn",,47.66837765,8.985935925062465,4001797872,4.0,81m²,5,1,9,1,1,1,1,1,3,1,1,1,0,0,0,0,0,0,0,0,1,1,2,1,1,1,0,0,4,1,28
"Tödistrasse 63, 8810 Horgen",,47.2589398,8.5861078,4001783149,4.0,81m²,2,1,21,1,3,1,1,1,2,1,2,1,0,0,1,1,0,0,2,1,3,1,5,1,4,1,0,0,14,1,60
"Blumenstrasse 1, 8192 Glattfelden",,47.5571712,8.507506,4001370440,4.5,117m²,1,1,3,1,0,0,0,0,0,0,0,0,0,0,0,0,0,0,0,0,0,0,0,0,1,1,0,0,7,1,12
"Götzstrasse 21, 8006 Zürich",,47.50382825,8.731300020445667,4002064526,4.5,117m²,32,1,109,1,18,1,27,1,42,1,9,1,0,0,1,1,0,0,6,1,11,1,9,1,21,1,0,0,46,1,331
"Götzstrasse 21, 8006 Zürich",,47.50382825,8.731300020445667,4002064452,4.5,117m²,32,1,109,1,18,1,27,1,42,1,9,1,0,0,1,1,0,0,6,1,11,1,9,1,21,1,0,0,46,1,331
"Götzstrasse 19, 8006 Zürich",,47.50421768757507,8.73037396724648,4002064450,4.5,117m²,32,1,109,1,18,1,27,1,41,1,10,1,0,0,1,1,0,0,6,1,12,1,9,1,21,1,0,0,47,1,333
"Freimettigenstrasse 16, 3672 Oberdiessbach",,46.8414195,7.620937907989417,4002054507,4.5,117m²,0,0,1,1,1,1,0,0,0,0,0,0,0,0,0,0,0,0,0,0,1,1,1,1,1,1,0,0,2,1,7
"Freimettigenstrasse 16, 3672 Oberdiessbach",,46.8414195,7.620937907989417,4002054505,4.5,117m²,0,0,1,1,1,1,0,0,0,0,0,0,0,0,0,0,0,0,0,0,1,1,1,1,1,1,0,0,2,1,7
"Freimettigenstrasse 16, 3672 Oberdiessbach",,46.8414195,7.620937907989417,4002054504,4.5,117m²,0,0,1,1,1,1,0,0,0,0,0,0,0,0,0,0,0,0,0,0,1,1,1,1,1,1,0,0,2,1,7
"Thurgauerstrasse 107, 8152 Opfikon",,47.42274065,8.557988986206166,4002009558,4.5,117m²,18,1,64,1,12,1,2,1,19,1,13,1,2,1,1,1,0,0,1,1,7,1,0,0,10,1,0,0,39,1,188
"Fraumattstrasse 12, 4410 Liestal",,47.492626099999995,7.728784574275336,4002006028,4.5,117m²,11,1,29,1,2,1,0,0,2,1,1,1,0,0,4,1,0,0,2,1,6,1,5,1,7,1,0,0,6,1,75
"Käppeligasse 6, 4125 Riehen",,47.5940991,7.6559081,4001969396,4.5,117m²,8,1,18,1,1,1,1,1,3,1,1,1,0,0,2,1,0,0,0,0,4,1,6,1,7,1,0,0,11,1,62
"Route de Sainte-Croix 12A, 1445 Vuiteboeuf",,,,4001969082,4.5,117m²,0,0,0,0,0,0,0,0,0,0,0,0,0,0,0,0,0,0,0,0,0,0,0,0,0,0,0,0,0,0,0
8640 Rapperswil,,47.22682681254579,8.82190953580586,4001936608,4.5,117m²,14,1,41,1,9,1,2,1,18,1,5,1,0,0,3,1,0,0,5,1,6,1,8,1,15,1,0,0,8,1,134
"Widenplatz 12, 5070 Frick",,47.507388899999995,8.022840880760747,4001871601,4.5,117m²,3,1,12,1,1,1,2,1,3,1,1,1,0,0,0,0,0,0,1,1,3,1,5,1,3,1,0,0,8,1,42
"Route des Argillères 4, 1782 Cormagens",,46.831871196797984,7.131780715408501,4001866998,4.5,117m²,1,1,0,0,0,0,0,0,0,0,2,1,0,0,1,1,0,0,0,0,0,0,0,0,0,0,0,0,3,1,7
1285 Sézegnin,,46.143945,6.0104963,4001764433,4.5,117m²,0,0,2,1,0,0,0,0,0,0,0,0,0,0,0,0,0,0,0,0,0,0,0,0,0,0,0,0,0,0,2
"Gyrhaldenstrasse 33, 4416 Bubendorf",,47.4526658,7.7444548,4001118323,4.5,117m²,1,1,2,1,0,0,0,0,1,1,0,0,0,0,0,0,0,0,0,0,2,1,1,1,0,0,0,0,1,1,8
8640 Rapperswil,,47.22682681254579,8.82190953580586,4001936613,4.5,117m²,14,1,41,1,9,1,2,1,18,1,5,1,0,0,3,1,0,0,5,1,6,1,8,1,15,1,0,0,8,1,134
"Rte des Argillères 6 - 8, 1782 Cormagens",,46.831871196797984,7.131780715408501,4001867009,4.5,117m²,1,1,0,0,0,0,0,0,0,0,2,1,0,0,1,1,0,0,0,0,0,0,0,0,0,0,0,0,3,1,7
"Langenthalstrasse 7, 4932 Lotzwil",,47.19164585,7.789602654279017,4002002619,4.5,117m²,1,1,6,1,2,1,0,0,0,0,0,0,0,0,0,0,0,0,0,0,0,0,0,0,1,1,0,0,1,1,11
"Vogelsang, 6287 Aesch LU",,47.2587914,8.2393046,4002067551,4.5,117m²,0,0,2,1,0,0,1,1,0,0,0,0,0,0,0,0,0,0,0,0,0,0,1,1,0,0,0,0,0,0,4
"Hubelstrasse 1B, 5524 Niederwil AG",,47.379645800000006,8.294397749999996,4002066177,4.5,108m²,0,0,5,1,0,0,0,0,1,1,0,0,0,0,1,1,0,0,0,0,0,0,1,1,1,1,0,0,0,0,9
"Freimettigenstrasse 16, 3672 Oberdiessbach",,46.8414195,7.620937907989417,4002054502,4.5,108m²,0,0,1,1,1,1,0,0,0,0,0,0,0,0,0,0,0,0,0,0,1,1,1,1,1,1,0,0,2,1,7
"Bassbeltweg 11 b, 2542 Pieterlen",,47.174822,7.3441028,4001978917,4.5,108m²,0,0,3,1,0,0,1,1,0,0,0,0,0,0,0,0,0,0,0,0,0,0,0,0,1,1,0,0,1,1,6
"Brückenmoosstrasse 21, 3942 Raron",,46.3087427,7.7956291,4001067447,4.5,108m²,1,1,7,1,0,0,0,0,0,0,0,0,0,0,0,0,0,0,0,0,0,0,1,1,1,1,0,0,4,1,14
"Rue de creta co, 1936 Verbier",,46.0996198,7.2177728,3000491869,4.5,108m²,7,1,33,1,6,1,4,1,4,1,3,1,0,0,1,1,0,0,1,1,3,1,3,1,6,1,1,1,6,1,78
1162 St-Prex,,46.481993446153844,6.452490861538462,4002015331,4.5,108m²,1,1,4,1,2,1,0,0,1,1,0,0,0,0,1,1,0,0,0,0,1,1,0,0,0,0,0,0,1,1,11
"Route des Argillères 4, 1782 Cormagens",,46.831871196797984,7.131780715408501,4001867001,4.5,108m²,1,1,0,0,0,0,0,0,0,0,2,1,0,0,1,1,0,0,0,0,0,0,0,0,0,0,0,0,3,1,7
"Im Haldenächer, 8907 Wettswil",,47.333387126888816,8.476764674551983,4002039943,4.5,108m²,0,0,6,1,0,0,0,0,1,1,0,0,0,0,2,1,0,0,0,0,1,1,1,1,1,1,0,0,5,1,17
1162 St-Prex,,46.481993446153844,6.452490861538462,4002015324,4.5,108m²,1,1,4,1,2,1,0,0,1,1,0,0,0,0,1,1,0,0,0,0,1,1,0,0,0,0,0,0,1,1,11
"Avenue de la Perrausaz 90, 1814 La Tour-de-Peilz",,46.456053499999996,6.865725708266229,4001978487,4.5,108m²,3,1,17,1,4,1,2,1,9,1,0,0,0,0,4,1,0,0,1,1,6,1,1,1,3,1,0,0,5,1,55
"Via Giovanni Serodine, 6612 Ascona",,46.1517795,8.7793253,4001353098,4.5,108m²,2,1,40,1,12,1,0,0,1,1,0,0,0,0,2,1,0,0,0,0,4,1,5,1,3,1,0,0,4,1,73
"Im Steinenmüller 6, 4142 Münchenstein",,47.5241918,7.6104038,4001946225,4.5,108m²,4,1,14,1,2,1,0,0,2,1,3,1,0,0,4,1,0,0,0,0,2,1,1,1,3,1,0,0,6,1,41
8907 Wettswil,,47.3362761865497,8.474658964327485,4002039919,4.5,108m²,0,0,5,1,0,0,0,0,1,1,0,0,0,0,1,1,0,0,0,0,1,1,1,1,1,1,0,0,4,1,14
1010 Lausanne,,46.53844260968495,6.652783954259043,4002003378,4.5,108m²,5,1,16,1,1,1,0,0,2,1,1,1,0,0,4,1,0,0,2,1,11,1,4,1,3,1,0,0,22,1,71
"Viale Stazione 21, 6500 Bellinzona",,46.192673,9.0247308,4002053901,4.5,108m²,7,1,36,1,18,1,4,1,6,1,4,1,0,0,7,1,0,0,0,0,9,1,5,1,7,1,0,0,4,1,107
"Doktorsträssli 5a, 4704 Niederbipp",,47.27176935,7.692159349387261,4001668356,4.5,108m²,2,1,2,1,1,1,0,0,2,1,0,0,0,0,0,0,0,0,0,0,0,0,2,1,0,0,0,0,3,1,12
"Langenhagweg 9, 4123 Allschwil",,47.5484145,7.5549351,4002032851,4.5,108m²,9,1,21,1,1,1,0,0,3,1,2,1,0,0,3,1,0,0,0,0,6,1,4,1,7,1,0,0,5,1,61
"Via F. Borromini 29, 6500 Bellinzona",,,,4001985978,4.5,108m²,0,0,0,0,0,0,0,0,0,0,0,0,0,0,0,0,0,0,0,0,0,0,0,0,0,0,0,0,0,0,0
"Bartholoméplatz 3, 7310 Bad Ragaz",,47.003111849999996,9.501156906929587,4001980329,4.5,108m²,7,1,19,1,1,1,2,1,3,1,2,1,0,0,1,1,0,0,0,0,1,1,2,1,4,1,0,0,14,1,56
"Via Valle Maggia 13, 6600 Locarno",,,,4001948105,4.5,108m²,0,0,0,0,0,0,0,0,0,0,0,0,0,0,0,0,0,0,0,0,0,0,0,0,0,0,0,0,0,0,0
"Gestadeckplatz 6, 4410 Liestal",,47.4858593,7.7372948,4001741543,5.5,170m²,9,1,26,1,2,1,0,0,2,1,1,1,0,0,4,1,0,0,1,1,4,1,4,1,6,1,0,0,5,1,64
"Gerbergasse 70, 4001 Basel",,47.5553964,7.5887611,4001669765,5.5,170m²,81,1,262,1,63,1,9,1,69,1,9,1,4,1,19,1,1,1,6,1,35,1,27,1,35,1,0,0,24,1,644
"Oltenstrasse 5, 4536 Attiswil",,47.247339749999995,7.614345777672844,4002051404,5.5,170m²,1,1,3,1,0,0,0,0,0,0,1,1,0,0,0,0,0,0,0,0,0,0,0,0,0,0,0,0,3,1,8
"Bucheggstrasse 130, 8057 Zürich",,47.3983777,8.5379052,4002000511,5.5,170m²,26,1,85,1,12,1,0,0,35,1,10,1,1,1,5,1,0,0,4,1,10,1,8,1,16,1,0,0,20,1,232
"Via Lischedo 3, 6802 Rivera",,46.1243333,8.9223826,4001668950,5.5,170m²,0,0,5,1,0,0,0,0,1,1,0,0,0,0,0,0,0,0,0,0,0,0,0,0,1,1,0,0,0,0,7
"Via F. Borromini 27, 6500 Bellinzona",,,,4001668734,5.5,170m²,0,0,0,0,0,0,0,0,0,0,0,0,0,0,0,0,0,0,0,0,0,0,0,0,0,0,0,0,0,0,0
"Wiesenstrasse 4, 8580 Amriswil",,47.54249645,9.30764684798977,4001596159,5.5,170m²,2,1,17,1,5,1,0,0,1,1,2,1,0,0,1,1,0,0,0,0,2,1,4,1,4,1,0,0,13,1,51
"Im Esterli 17/19, 4125 Riehen",,47.575990213185406,7.6441960966458655,4002055439,5.5,170m²,7,1,5,1,0,0,0,0,1,1,0,0,0,0,2,1,0,0,0,0,2,1,5,1,5,1,0,0,4,1,31
"Zilstrasse 60, 9016 St. Gallen",,47.44389875,9.409000847637056,4002054434,5.5,170m²,2,1,15,1,0,0,0,0,2,1,2,1,0,0,0,0,0,0,2,1,0,0,1,1,0,0,0,0,16,1,40
"Via alla Bozzoreda 37, 6963 Pregassona",,46.0195093,8.9727665,4002053900,5.5,170m²,12,1,35,1,6,1,2,1,15,1,9,1,5,1,9,1,0,0,2,1,11,1,3,1,5,1,0,0,11,1,125
"Via Lischedo 3, 6802 Rivera",,46.1243333,8.9223826,4002053895,5.5,170m²,0,0,5,1,0,0,0,0,1,1,0,0,0,0,0,0,0,0,0,0,0,0,0,0,1,1,0,0,0,0,7
"Via San Gottardo 58a, 6500 Bellinzona",,46.201208300000005,9.0328184,4002038666,5.5,170m²,7,1,27,1,16,1,4,1,5,1,2,1,0,0,5,1,0,0,0,0,8,1,4,1,9,1,0,0,12,1,99
"Frank-Buchserstrasse 3, 4532 Feldbrunnen",,47.2198489,7.5552774,4002038659,5.5,170m²,0,0,11,1,0,0,0,0,1,1,0,0,0,0,1,1,0,0,0,0,0,0,0,0,0,0,0,0,7,1,20
"Le Grand-Chemin 126, 1066 Epalinges",,46.550450999999995,6.681119175,4002007267,5.5,170m²,1,1,7,1,1,1,0,0,1,1,0,0,0,0,0,0,0,0,0,0,1,1,2,1,1,1,0,0,4,1,18
"Leutschenbachstrasse 50/50a, 8050 Zürich",,47.41698710277659,8.556155144939847,4002002549,5.5,170m²,29,1,103,1,18,1,3,1,35,1,18,1,3,1,2,1,0,0,4,1,12,1,8,1,18,1,0,0,55,1,308
"Viale Stazione 21, 6500 Bellinzona",,46.192673,9.0247308,4001980280,5.5,170m²,7,1,36,1,18,1,4,1,6,1,4,1,0,0,7,1,0,0,0,0,9,1,5,1,7,1,0,0,4,1,107
"Vulpera 32, 7552 Vulpera",,46.7866961,10.284163,4001912485,5.5,170m²,5,1,6,1,1,1,0,0,1,1,0,0,0,0,0,0,0,0,0,0,0,0,0,0,2,1,0,0,4,1,19
"St. Jakobstrasse 46, 4147 Aesch BL",,47.4786529,7.5974942,4001912267,5.5,170m²,3,1,18,1,0,0,1,1,6,1,2,1,0,0,1,1,0,0,0,0,2,1,4,1,5,1,0,0,5,1,47
"Via Sasso Corbaro 19, 6593 Cadenazzo",,46.1513709,8.9444258,4001904514,5.5,170m²,3,1,4,1,2,1,1,1,1,1,0,0,0,0,2,1,0,0,0,0,3,1,1,1,0,0,0,0,0,0,17
"rue du Kirlou 24, 2800 Delémont",,47.374442349999995,7.359278187978271,4001901335,5.5,170m²,5,1,9,1,5,1,1,1,1,1,2,1,0,0,2,1,0,0,0,0,4,1,5,1,4,1,0,0,5,1,43
"rue du Kirlou 24, 2800 Delémont",,47.374442349999995,7.359278187978271,4001901330,5.0,140m²,5,1,9,1,5,1,1,1,1,1,2,1,0,0,2,1,0,0,0,0,4,1,5,1,4,1,0,0,5,1,43
"Käferholzstrasse 48, 8057 Zürich",,47.4021195,8.532901204787251,4001895941,5.0,140m²,24,1,87,1,11,1,1,1,36,1,7,1,1,1,6,1,0,0,3,1,13,1,8,1,17,1,0,0,27,1,241
"Niederfeldstrasse 8, 8932 Mettmenstetten",,47.24654755,8.46642889948233,4001836955,5.0,140m²,0,0,4,1,0,0,0,0,0,0,0,0,0,0,1,1,0,0,0,0,0,0,2,1,0,0,0,0,5,1,12
"Hofackerstrasse 6e, 8157 Dielsdorf",,47.4854882,8.4560237,4001820529,5.0,140m²,4,1,15,1,2,1,0,0,3,1,1,1,0,0,1,1,1,1,0,0,2,1,2,1,5,1,0,0,2,1,38
"Schwaderloch 7, 8253 Diessenhofen",,47.6902444,8.751494199917264,4001797428,5.0,140m²,3,1,11,1,1,1,0,0,1,1,2,1,0,0,2,1,0,0,1,1,0,0,1,1,1,1,0,0,8,1,31
"St. Gallerstrasse 56 A, 9500 Wil SG",,47.46412415,9.058282709405894,4001743104,5.0,140m²,6,1,33,1,8,1,1,1,3,1,7,1,0,0,3,1,0,0,0,0,4,1,7,1,8,1,1,1,3,1,84
"Via Monte Carmen 13, 6900 Lugano",,46.013463099999996,8.952825049999998,4001714200,5.0,140m²,45,1,108,1,35,1,13,1,39,1,9,1,6,1,20,1,0,0,2,1,33,1,26,1,18,1,2,1,23,1,379
"Langenhagweg 9, 4123 Allschwil",,47.5484145,7.5549351,4001669466,5.0,140m²,9,1,21,1,1,1,0,0,3,1,2,1,0,0,3,1,0,0,0,0,6,1,4,1,7,1,0,0,5,1,61
"Langenhagweg 7, 4123 Allschwil",,47.5481697,7.5546643,4001669464,5.0,140m²,9,1,21,1,1,1,0,0,3,1,2,1,0,0,3,1,0,0,0,0,6,1,4,1,7,1,0,0,5,1,61
"Via Sasso Corbaro 17, 6593 Cadenazzo",,46.1513709,8.9444258,4001668528,5.0,140m²,3,1,4,1,2,1,1,1,1,1,0,0,0,0,2,1,0,0,0,0,3,1,1,1,0,0,0,0,0,0,17
"Via Monte Carmen 13, 6900 Lugano",,46.013463099999996,8.952825049999998,4001668412,5.0,140m²,45,1,108,1,35,1,13,1,39,1,9,1,6,1,20,1,0,0,2,1,33,1,26,1,18,1,2,1,23,1,379
"Oelebachweg 19, 3427 Utzenstorf",,47.135010050000005,7.548367062500716,4002062172,5.0,140m²,5,1,8,1,1,1,1,1,0,0,0,0,0,0,2,1,0,0,0,0,1,1,2,1,1,1,0,0,15,1,36
"Tittertenstrasse 9, 4418 Reigoldswil",,47.398839,7.6921636,4002060863,5.0,140m²,0,0,2,1,0,0,0,0,0,0,0,0,0,0,0,0,0,0,0,0,0,0,0,0,1,1,0,0,0,0,3
"Via Valle Maggia 13, 6600 Locarno",,,,4002055344,5.0,140m²,0,0,0,0,0,0,0,0,0,0,0,0,0,0,0,0,0,0,0,0,0,0,0,0,0,0,0,0,0,0,0
"Chemin des Croisettes 7, 1066 Epalinges",,46.54550315,6.660785135862447,4002054444,5.0,140m²,3,1,9,1,1,1,0,0,1,1,1,1,0,0,2,1,0,0,2,1,5,1,3,1,3,1,0,0,10,1,40
"Hauptstrasse 119, 4102 Binningen",,47.5382215,7.5721395,4002050661,5.0,140m²,10,1,31,1,4,1,0,0,3,1,3,1,0,0,2,1,0,0,1,1,10,1,8,1,4,1,0,0,4,1,80
"Spyristrasse 20, 8044 Zürich",,47.38233855,8.552323701211794,4002047844,5.0,140m²,96,1,210,1,40,1,20,1,88,1,17,1,2,1,21,1,0,0,5,1,19,1,18,1,32,1,0,0,23,1,591
"Avenue Beauregard 2, 1700 Fribourg",,46.8019815,7.148923834893623,4002039926,5.0,140m²,24,1,93,1,14,1,6,1,36,1,3,1,6,1,10,1,1,1,0,0,13,1,13,1,14,1,0,0,45,1,278
"Via Ghiringhelli 27 a, 6500 Bellinzona",,46.18717845,9.016370013509558,4002038664,5.0,140m²,7,1,38,1,18,1,4,1,6,1,4,1,0,0,9,1,0,0,0,0,9,1,6,1,9,1,0,0,5,1,115
"Via Franco Zorzi 25A, 6500 Bellinzona",,46.1909836,9.0172659,4002031463,5.0,140m²,7,1,35,1,19,1,4,1,5,1,4,1,0,0,9,1,0,0,0,0,8,1,5,1,7,1,0,0,4,1,107
"Innere Mattenstrasse 20, 5036 Oberentfelden",,47.35998,8.042668708213048,4002018334,5.5,122m²,4,1,12,1,2,1,1,1,8,1,1,1,0,0,2,1,0,0,0,0,4,1,2,1,3,1,0,0,0,0,39
"Stengelmattstrasse 24, 6252 Dagmersellen",,47.2130905,7.983813114006721,4002009638,5.5,122m²,0,0,7,1,1,1,1,1,4,1,3,1,0,0,0,0,0,0,0,0,0,0,2,1,1,1,0,0,6,1,25
"Küchengasse 16, 4051 Basel",,47.5485517,7.5889376,4002009504,5.5,122m²,60,1,205,1,37,1,8,1,43,1,9,1,3,1,20,1,1,1,7,1,31,1,29,1,27,1,0,0,16,1,496
"Esterlistrasse 20, 4133 Pratteln",,47.5193907,7.6870362,4002009500,5.5,122m²,1,1,17,1,1,1,0,0,4,1,2,1,0,0,1,1,0,0,0,0,3,1,2,1,6,1,0,0,6,1,43
"Jurastrasse 92, 2540 Grenchen",,47.1980531,7.4066132,4002006074,5.5,122m²,2,1,17,1,0,0,2,1,2,1,1,1,0,0,1,1,0,0,1,1,1,1,2,1,2,1,0,0,3,1,34
"Wartenweilerweg 3, 9214 Kradolf-Schönenberg",,47.52572055,9.202142495289774,4001996813,5.5,122m²,0,0,3,1,0,0,0,0,0,0,2,1,0,0,0,0,0,0,0,0,0,0,0,0,0,0,0,0,2,1,7
"Via alla Bozzoreda 37, 6963 Pregassona",,46.0195093,8.9727665,4001980272,5.5,122m²,12,1,35,1,6,1,2,1,15,1,9,1,5,1,9,1,0,0,2,1,11,1,3,1,5,1,0,0,11,1,125
"Via F. Borromini 20, 6500 Bellinzona",,,,4001918758,5.5,122m²,0,0,0,0,0,0,0,0,0,0,0,0,0,0,0,0,0,0,0,0,0,0,0,0,0,0,0,0,0,0,0
"rue du Kirlou 24, 2800 Delémont",,47.374442349999995,7.359278187978271,4001901334,5.5,122m²,5,1,9,1,5,1,1,1,1,1,2,1,0,0,2,1,0,0,0,0,4,1,5,1,4,1,0,0,5,1,43
"rue du Kirlou 24, 2800 Delémont",,47.374442349999995,7.359278187978271,4001901333,5.5,122m²,5,1,9,1,5,1,1,1,1,1,2,1,0,0,2,1,0,0,0,0,4,1,5,1,4,1,0,0,5,1,43
"rue du Kirlou 24, 2800 Delémont",,47.374442349999995,7.359278187978271,4001901332,5.5,122m²,5,1,9,1,5,1,1,1,1,1,2,1,0,0,2,1,0,0,0,0,4,1,5,1,4,1,0,0,5,1,43
"rue du Kirlou 24, 2800 Delémont",,47.374442349999995,7.359278187978271,4001901331,5.5,122m²,5,1,9,1,5,1,1,1,1,1,2,1,0,0,2,1,0,0,0,0,4,1,5,1,4,1,0,0,5,1,43
"Stallenmattstrasse 10, 4104 Oberwil BL",,47.5199351,7.5641078,4001864088,5.5,122m²,0,0,7,1,0,0,0,0,3,1,2,1,0,0,1,1,0,0,0,0,4,1,3,1,2,1,0,0,4,1,26
"Eugen-Huber-Str. 113, 8048 Zürich",,47.3871702,8.47548810019084,4001852119,5.5,122m²,18,1,53,1,2,1,1,1,24,1,12,1,0,0,1,1,0,0,0,0,4,1,4,1,8,1,0,0,11,1,138
"Via del Carmagnola 36B, 6517 Arbedo",,,,4001836520,5.5,122m²,0,0,0,0,0,0,0,0,0,0,0,0,0,0,0,0,0,0,0,0,0,0,0,0,0,0,0,0,0,0,0
"Paracelsusstrasse 63, 4058 Basel",,47.5659154,7.6115288,4001794440,5.5,122m²,31,1,80,1,18,1,6,1,24,1,5,1,1,1,4,1,0,0,0,0,9,1,4,1,10,1,0,0,19,1,211
"Haltingerstr. 78, 4057 Basel",,47.5661802,7.5958747,4001793291,5.5,122m²,70,1,221,1,59,1,16,1,59,1,7,1,1,1,14,1,1,1,1,1,28,1,13,1,27,1,0,0,18,1,535
"Rosenstrasse 1, 4410 Liestal",,47.4856124,7.7376025,4001749938,5.5,122m²,9,1,26,1,2,1,0,0,2,1,1,1,0,0,4,1,0,0,1,1,4,1,4,1,6,1,0,0,5,1,64
"Gestadeckplatz 6, 4410 Liestal",,47.4858593,7.7372948,4001669298,5.5,122m²,9,1,26,1,2,1,0,0,2,1,1,1,0,0,4,1,0,0,1,1,4,1,4,1,6,1,0,0,5,1,64
"Via F. Borromini 20, 6500 Bellinzona",,,,4001668739,5.5,122m²,0,0,0,0,0,0,0,0,0,0,0,0,0,0,0,0,0,0,0,0,0,0,0,0,0,0,0,0,0,0,0
"Pilgerstr. 71, 5405 Dättwil AG",,47.451521299999996,8.285572549999998,4001668614,4.5,128m²,1,1,9,1,0,0,0,0,6,1,0,0,0,0,0,0,1,1,0,0,3,1,1,1,2,1,1,1,4,1,28
"Wylerstrasse 115, 3014 Bern",,46.9614166,7.4471717,4002073453,4.5,128m²,34,1,148,1,31,1,8,1,48,1,12,1,22,1,17,1,0,0,1,1,14,1,5,1,28,1,1,1,20,1,389
"Burgdorfstrasse 13, 3422 Alchenflüh",,47.081564150000005,7.5817915000000005,4002071006,4.5,128m²,1,1,8,1,0,0,0,0,2,1,0,0,0,0,0,0,0,0,0,0,1,1,2,1,2,1,0,0,15,1,31
"Bahnstrasse 6, 9445 Rebstein",,47.39335805,9.587488738992535,4002054432,4.5,128m²,1,1,12,1,1,1,0,0,2,1,0,0,0,0,0,0,0,0,0,0,0,0,2,1,3,1,0,0,1,1,22
"Via del Tiglio 5, 6592 S. Antonino",,46.1572824,8.9814849,4002051393,4.5,128m²,0,0,2,1,1,1,0,0,0,0,0,0,0,0,0,0,0,0,0,0,0,0,1,1,1,1,0,0,2,1,7
"Redingstrasse 24, 4052 Basel",,47.54671,7.6201878,4002047930,4.5,128m²,10,1,29,1,3,1,1,1,3,1,0,0,0,0,2,1,0,0,3,1,7,1,5,1,1,1,0,0,28,1,92
"Rigiring 3, 6280 Hochdorf",,47.16723734999999,8.300823292293916,4002046465,4.5,128m²,1,1,8,1,0,0,2,1,3,1,1,1,0,0,1,1,0,0,0,0,1,1,4,1,3,1,0,0,7,1,31
"Rue de Romont 1, 1700 Fribourg",,46.8049405,7.1552585,4002039930,4.5,128m²,24,1,95,1,14,1,7,1,37,1,3,1,6,1,10,1,1,1,0,0,14,1,13,1,14,1,0,0,45,1,283
"Grabenwies 32, 8057 Zürich",,47.4020363,8.5371545,4002039927,4.5,128m²,23,1,90,1,12,1,2,1,38,1,9,1,1,1,6,1,0,0,3,1,13,1,8,1,16,1,0,0,30,1,251
"Rue Jacques-Vogt 2, 1700 Fribourg",,46.799118,7.1532811,4002039925,4.5,128m²,24,1,91,1,14,1,6,1,36,1,3,1,6,1,9,1,1,1,0,0,12,1,13,1,13,1,0,0,44,1,272
"Chemin de la Colline 2, 1023 Crissier",,46.5417357,6.574662,4002017373,4.5,128m²,14,1,45,1,4,1,1,1,17,1,4,1,0,0,6,1,0,0,0,0,10,1,5,1,9,1,0,0,15,1,130
"Via F. Borromini 29a, 6500 Bellinzona",,,,4002004944,4.5,128m²,0,0,0,0,0,0,0,0,0,0,0,0,0,0,0,0,0,0,0,0,0,0,0,0,0,0,0,0,0,0,0
"Wehntalerstrasse 432, 8046 Zürich",,47.41566745,8.51443105020198,4001999745,4.5,128m²,5,1,18,1,2,1,0,0,7,1,2,1,0,0,4,1,0,0,0,0,3,1,0,0,4,1,0,0,11,1,56
"Via Franco Zorzi 25A, 6500 Bellinzona",,46.1909836,9.0172659,4001995971,4.5,128m²,7,1,35,1,19,1,4,1,5,1,4,1,0,0,9,1,0,0,0,0,8,1,5,1,7,1,0,0,4,1,107
"Paul-Kleestrasse 107, 3053 Münchenbuchsee",,47.0213248,7.438463979875334,4001989296,4.5,128m²,0,0,6,1,0,0,1,1,2,1,1,1,0,0,1,1,0,0,0,0,1,1,2,1,3,1,0,0,12,1,29
"Via Franco Zorzi 25A, 6500 Bellinzona",,46.1909836,9.0172659,4001979003,4.5,128m²,7,1,35,1,19,1,4,1,5,1,4,1,0,0,9,1,0,0,0,0,8,1,5,1,7,1,0,0,4,1,107
"rue du Kirlou 24, 2800 Delémont",,47.374442349999995,7.359278187978271,4001901329,4.5,128m²,5,1,9,1,5,1,1,1,1,1,2,1,0,0,2,1,0,0,0,0,4,1,5,1,4,1,0,0,5,1,43
"rue du Kirlou 24, 2800 Delémont",,47.374442349999995,7.359278187978271,4001901327,4.5,128m²,5,1,9,1,5,1,1,1,1,1,2,1,0,0,2,1,0,0,0,0,4,1,5,1,4,1,0,0,5,1,43
"Chemin des Grands-Pins 2, 2000 Neuchâtel",,46.99772462006891,6.93381776677924,4001867848,4.5,128m²,28,1,65,1,13,1,6,1,25,1,6,1,0,0,8,1,0,0,2,1,12,1,8,1,18,1,0,0,11,1,202
"Via Cantonale 12 A, 6942 Savosa",,46.02190331744186,8.948039760912136,4001860704,4.5,128m²,12,1,37,1,10,1,2,1,13,1,5,1,2,1,11,1,0,0,2,1,10,1,4,1,6,1,0,0,21,1,135
"Rue Adrien-Pichard 2, 1003 Lausanne",,46.5222215,6.630389990562497,4001847621,4.0,120m²,59,1,243,1,44,1,35,1,92,1,10,1,2,1,15,1,0,0,3,1,30,1,16,1,34,1,1,1,31,1,615
"Feldeggstrasse 73, 3322 Urtenen-Schönbühl",,47.019027,7.512513961459841,4001809020,4.0,120m²,2,1,4,1,1,1,0,0,3,1,0,0,0,0,1,1,0,0,0,0,1,1,2,1,1,1,0,0,10,1,25
"Heidenerstrasse 6, 9400 Rorschach",,47.4734897,9.49802463109404,4001765042,4.0,120m²,4,1,34,1,13,1,1,1,6,1,0,0,0,0,2,1,0,0,0,0,0,0,2,1,4,1,0,0,23,1,89
"Truttikerstrasse 19, 8475 Ossingen",,47.613678750000005,8.725939259196991,4002081184,4.0,120m²,1,1,1,1,0,0,0,0,0,0,2,1,0,0,0,0,0,0,0,0,0,0,0,0,1,1,0,0,1,1,6
"Wilfriedstrasse 7, 8032 Zürich",,47.3700424,8.554653802798512,4002078663,4.0,120m²,132,1,307,1,57,1,25,1,98,1,17,1,1,1,23,1,0,0,6,1,31,1,46,1,42,1,0,0,28,1,813
"Herrenhof 868, 9240 Niederglatt",,47.4240752,9.1598683,4002077664,4.0,120m²,0,0,0,0,0,0,0,0,0,0,0,0,0,0,0,0,0,0,0,0,0,0,0,0,1,1,0,0,0,0,1
"Seeblickstrasse 31, 8738 Uetliburg",,47.2363786,9.035234,4002076971,4.0,120m²,0,0,2,1,0,0,0,0,0,0,0,0,0,0,0,0,0,0,0,0,0,0,1,1,1,1,0,0,0,0,4
"Husächerstr. 5, 8907 Wettswil",,47.340765149999996,8.47290759882921,4002075419,4.0,120m²,0,0,4,1,0,0,0,0,1,1,0,0,0,0,1,1,0,0,0,0,0,0,1,1,0,0,0,0,0,0,7
"Route de Vandœuvres 6, 1223 Cologny",,46.20678975,6.180745826280712,4002075044,4.0,120m²,7,1,19,1,0,0,2,1,4,1,0,0,2,1,2,1,1,1,0,0,8,1,2,1,0,0,0,0,2,1,49
"Via F. Borromini 27, 6500 Bellinzona",,,,4002074831,4.0,120m²,0,0,0,0,0,0,0,0,0,0,0,0,0,0,0,0,0,0,0,0,0,0,0,0,0,0,0,0,0,0,0
"Wylerstrasse 115, 3014 Bern",,46.9614166,7.4471717,4002073382,4.0,120m²,34,1,148,1,31,1,8,1,48,1,12,1,22,1,17,1,0,0,1,1,14,1,5,1,28,1,1,1,20,1,389
"Hammerstrasse 92, 4057 Basel",,47.5646568,7.5957185,4002073335,4.0,120m²,82,1,229,1,67,1,14,1,64,1,9,1,1,1,17,1,1,1,2,1,28,1,18,1,27,1,0,0,21,1,580
"Bleicherstrasse, Nr. 33, 8953 Dietikon",,47.4076388,8.397884,4002070471,4.0,120m²,6,1,32,1,6,1,2,1,23,1,0,0,0,0,0,0,0,0,0,0,4,1,5,1,6,1,0,0,22,1,106
"Rue Daubin 4, 1203 Genève",,46.2058238,6.1294096,4002070191,4.0,120m²,101,1,342,1,65,1,20,1,59,1,12,1,11,1,12,1,1,1,5,1,37,1,27,1,26,1,0,0,38,1,756
"Eigenheimweg 18, 4614 Hägendorf",,47.338101300000005,7.850007494505492,4002066673,4.0,120m²,3,1,5,1,0,0,0,0,0,0,1,1,0,0,1,1,0,0,0,0,1,1,1,1,0,0,0,0,0,0,12
"Langgasse 58, 8400 Winterthur",,47.492165549999996,8.733411217709435,4002061897,4.0,120m²,28,1,97,1,18,1,27,1,41,1,16,1,0,0,1,1,0,0,3,1,9,1,9,1,21,1,0,0,24,1,294
"Rathausstrasse 30, 8570 Weinfelden",,47.5666802,9.108451,4002060913,4.0,120m²,4,1,25,1,8,1,4,1,4,1,5,1,0,0,1,1,0,0,0,0,4,1,4,1,7,1,0,0,3,1,69
"Rosenberghöhe 22, 6004 Luzern",,47.06215595,8.305896578423365,4002060543,4.0,120m²,32,1,141,1,33,1,12,1,23,1,8,1,1,1,3,1,0,0,3,1,6,1,12,1,18,1,1,1,13,1,306
"Seeburgstrasse 49B, 6006 Luzern",,47.048066649999996,8.343181157242544,4002059937,4.0,120m²,0,0,8,1,3,1,0,0,0,0,1,1,0,0,0,0,0,0,1,1,1,1,1,1,2,1,0,0,9,1,26
"vicolo di Caprino 10, 6823 Pugerna",,,,4002059179,4.0,120m²,0,0,0,0,0,0,0,0,0,0,0,0,0,0,0,0,0,0,0,0,0,0,0,0,0,0,0,0,0,0,0
"Hofmattstrasse 46, 4415 Lausen",,47.468552,7.757767422605271,4002055430,5.0,110m²,0,0,6,1,0,0,0,0,2,1,1,1,0,0,0,0,0,0,0,0,0,0,1,1,1,1,0,0,2,1,13
"Am Stausee 25, 4127 Birsfelden",,47.5564628,7.6317042,4002055429,5.0,110m²,6,1,15,1,2,1,0,0,2,1,2,1,0,0,3,1,0,0,2,1,4,1,2,1,1,1,0,0,25,1,64
"Westerholz 6, 2504 Biel/Bienne",,47.1502368,7.272092,4002054443,5.0,110m²,3,1,17,1,1,1,0,0,8,1,1,1,0,0,2,1,0,0,1,1,3,1,0,0,6,1,0,0,14,1,56
"Holeeholzweg 69, 4102 Binningen",,47.53830455,7.553573200000001,4002054440,5.0,110m²,5,1,10,1,1,1,0,0,1,1,1,1,0,0,1,1,0,0,0,0,3,1,4,1,2,1,0,0,2,1,30
"Kurvenstrasse 15, 8600 Dübendorf",,47.397128550000005,8.61408523764917,4002054439,5.0,110m²,14,1,38,1,5,1,1,1,10,1,4,1,0,0,2,1,0,0,1,1,4,1,4,1,6,1,0,0,54,1,143
"Pfruendhofstrasse 48, 8910 Affoltern am Albis",,47.27652985,8.456831881170883,4002054433,5.0,110m²,5,1,15,1,1,1,2,1,1,1,2,1,0,0,1,1,0,0,0,0,3,1,6,1,2,1,0,0,15,1,53
"Bernstrasse 147, 3400 Burgdorf",,47.0517618,7.609701935373495,4002051403,5.0,110m²,3,1,25,1,3,1,5,1,3,1,3,1,0,0,2,1,0,0,3,1,2,1,7,1,3,1,0,0,31,1,90
"Batteriestrasse 4a, 4103 Bottmingen",,47.5273022,7.5747135,4002051395,5.0,110m²,3,1,13,1,1,1,0,0,2,1,2,1,0,0,1,1,0,0,0,0,3,1,2,1,1,1,0,0,5,1,33
"Via Giuseppe Torti 6, 6500 Bellinzona",,46.1867087,9.018155593143119,4002051394,5.0,110m²,7,1,38,1,18,1,4,1,6,1,4,1,0,0,9,1,0,0,0,0,9,1,6,1,9,1,0,0,5,1,115
"Via Monte Carmen 13, 6900 Lugano",,46.013463099999996,8.952825049999998,4002051338,5.0,110m²,45,1,108,1,35,1,13,1,39,1,9,1,6,1,20,1,0,0,2,1,33,1,26,1,18,1,2,1,23,1,379
"Hammerstrasse 33, 8008 Zürich",,47.36028865,8.560204209430795,4002050823,5.0,110m²,46,1,114,1,10,1,4,1,27,1,11,1,0,0,4,1,0,0,5,1,18,1,10,1,14,1,0,0,14,1,277
"Via ai Saleggi 26, 6600 Locarno",,46.1628665,8.7946646,4002050783,5.0,110m²,10,1,63,1,30,1,2,1,11,1,3,1,0,0,8,1,0,0,0,0,13,1,15,1,2,1,0,0,13,1,170
"Wyde 7, 5242 Birr",,47.4383401,8.2119354,4002050667,5.0,110m²,1,1,6,1,1,1,0,0,0,0,3,1,0,0,2,1,0,0,0,0,1,1,2,1,0,0,0,0,21,1,37
"Dorfstrasse 31, 8310 Grafstal",,47.4439564,8.699784,4002048119,5.0,110m²,1,1,9,1,0,0,0,0,0,0,0,0,0,0,0,0,0,0,0,0,0,0,0,0,0,0,0,0,7,1,17
"Am Stausee 25, 4127 Birsfelden",,47.5564628,7.6317042,4002044164,5.0,110m²,6,1,15,1,2,1,0,0,2,1,2,1,0,0,3,1,0,0,2,1,4,1,2,1,1,1,0,0,25,1,64
"Rue de l'Aubépine 3, 1205 Genève",,46.1903575,6.1439867,4002042526,5.0,110m²,68,1,314,1,43,1,8,1,36,1,4,1,13,1,19,1,0,0,5,1,38,1,36,1,6,1,0,0,36,1,626
"Pappelnweg 36d, 4310 Rheinfelden",,47.5472909,7.7729954,4002039803,5.0,110m²,1,1,6,1,0,0,0,0,1,1,0,0,0,0,0,0,0,0,0,0,2,1,2,1,0,0,1,1,4,1,17
"Mattengasse 11, 8005 Zürich",,47.382205400000004,8.530119794759537,4002039327,5.0,110m²,159,1,502,1,158,1,49,1,192,1,25,1,1,1,17,1,0,0,11,1,33,1,26,1,56,1,0,0,37,1,1266
"Via Olgiati 20B, 6512 Giubiasco",,,,4002038665,5.0,110m²,0,0,0,0,0,0,0,0,0,0,0,0,0,0,0,0,0,0,0,0,0,0,0,0,0,0,0,0,0,0,0
"Rainstrasse 1, 5415 Nussbaumen AG",,47.489159900000004,8.295717210445172,4002038160,5.0,110m²,2,1,13,1,4,1,1,1,2,1,0,0,0,0,1,1,0,0,1,1,1,1,3,1,4,1,0,0,12,1,44
"Belchenring 51, 4123 Allschwil",,47.5426986,7.544792556830408,4002032821,3.5,81m²,5,1,12,1,0,0,0,0,2,1,0,0,0,0,1,1,0,0,0,0,3,1,2,1,4,1,0,0,3,1,32
"Blochmonterstr. 4, 4054 Basel",,47.5473878,7.5748705,4002032820,3.5,81m²,52,1,148,1,26,1,4,1,28,1,10,1,0,0,15,1,1,1,6,1,26,1,14,1,20,1,0,0,13,1,363
"Bahnweg 1, 8700 Küsnacht",,47.31359705,8.583121980708345,4002032033,3.5,81m²,4,1,15,1,2,1,0,0,2,1,4,1,0,0,1,1,0,0,0,0,2,1,5,1,8,1,0,0,3,1,46
"Wehrligasse 5A, 8476 Stammheim",,47.63902950885018,8.78807594115428,4002031831,3.5,81m²,1,1,4,1,0,0,0,0,0,0,0,0,0,0,0,0,0,0,0,0,0,0,0,0,0,0,0,0,0,0,5
"Bernapark 28, 3066 Stettlen",,46.96048,7.51292,4002028305,3.5,81m²,1,1,10,1,0,0,0,0,0,0,0,0,0,0,0,0,0,0,0,0,1,1,0,0,2,1,0,0,1,1,15
"Pappelnweg 34b, 4310 Rheinfelden",,47.5476981,7.7730956,4002027464,3.5,81m²,2,1,6,1,1,1,0,0,3,1,0,0,0,0,0,0,0,0,0,0,2,1,2,1,0,0,1,1,8,1,25
"Chemin de la Pousaz 16, 1866 Ormont-Dessous",,46.35223275,7.0693374,4002027393,3.5,81m²,0,0,0,0,0,0,0,0,0,0,0,0,0,0,0,0,0,0,0,0,0,0,0,0,0,0,0,0,0,0,0
"Zihlweg 41, 2557 Studen BE",,47.1178126,7.300076177451997,4002022332,3.5,81m²,1,1,9,1,0,0,0,0,0,0,1,1,0,0,0,0,0,0,0,0,1,1,0,0,0,0,0,0,3,1,15
"Schiltstrasse 49, 8750 Glarus",,47.037585050000004,9.063123102820335,4002015998,3.5,81m²,8,1,23,1,7,1,0,0,5,1,2,1,0,0,2,1,0,0,0,0,1,1,6,1,1,1,0,0,5,1,60
"Birsfelderstrasse 95, 4132 Muttenz",,47.5390924,7.6310616,4002009502,3.5,81m²,5,1,17,1,1,1,0,0,3,1,3,1,0,0,2,1,0,0,3,1,3,1,0,0,2,1,0,0,15,1,54
"Sankt Martinstrasse 60, 6430 Schwyz",,,,4002009122,3.5,81m²,0,0,0,0,0,0,0,0,0,0,0,0,0,0,0,0,0,0,0,0,0,0,0,0,0,0,0,0,0,0,0
"Rothausstrasse 15, 4132 Muttenz",,47.5257782,7.6560595,4002005842,3.5,81m²,0,0,13,1,1,1,0,0,3,1,1,1,0,0,2,1,0,0,0,0,2,1,2,1,1,1,0,0,9,1,34
"Heinrich-Wolff-Strasse 10, 8046 Zürich",,47.4236779,8.4997459,4002005129,3.5,81m²,3,1,14,1,1,1,0,0,5,1,1,1,0,0,1,1,0,0,0,0,2,1,0,0,3,1,0,0,3,1,33
"Zürcherstrasse 24B, 8852 Altendorf",,47.1932529,8.8263019,4002001854,3.5,81m²,2,1,8,1,0,0,0,0,0,0,0,0,0,0,1,1,0,0,0,0,0,0,2,1,0,0,0,0,11,1,24
"Schärenfeld 30, 8052 Seebach",,47.4196989,8.5500524,4002000627,3.5,81m²,29,1,110,1,18,1,3,1,37,1,17,1,3,1,2,1,0,0,4,1,12,1,8,1,19,1,0,0,53,1,315
"Altweg 25, 8905 Arni",,47.3209176,8.42691644742525,4001997328,3.5,81m²,1,1,0,0,0,0,0,0,0,0,1,1,0,0,1,1,0,0,0,0,0,0,0,0,1,1,0,0,0,0,4
"Steinenbühlstrasse 50A, 5417 Untersiggenthal",,47.5126923,8.2705985,4001988533,3.5,81m²,0,0,0,0,0,0,0,0,0,0,0,0,0,0,0,0,0,0,0,0,0,0,0,0,0,0,0,0,3,1,3
"Delsbergerallee 68, 4053 Basel",,47.5397015,7.5990901,4001987266,3.5,81m²,25,1,71,1,6,1,4,1,14,1,4,1,3,1,7,1,0,0,6,1,14,1,16,1,11,1,0,0,11,1,192
"Schwärzere 19, 3425 Koppigen",,47.1324178,7.6059752,4001983791,3.5,81m²,0,0,1,1,0,0,0,0,0,0,3,1,0,0,1,1,0,0,0,0,0,0,1,1,1,1,0,0,18,1,25
"Trogmattweg 9, 3506 Grosshöchstetten",,46.90452365,7.634434849999991,4001982696,3.5,81m²,1,1,5,1,0,0,0,0,0,0,0,0,0,0,0,0,0,0,0,0,1,1,2,1,3,1,0,0,4,1,16
"Im Burgfelderhof 43, 4055 Basel",,47.5716655,7.5585205,4001981629,5.0,120m²,8,1,23,1,5,1,1,1,6,1,0,0,0,0,1,1,0,0,0,0,7,1,2,1,6,1,0,0,5,1,64
"Grubenstrasse 13b, 5070 Frick",,47.5102226,8.020031975629749,4001980147,5.0,120m²,3,1,10,1,1,1,2,1,3,1,1,1,0,0,0,0,0,0,1,1,3,1,5,1,3,1,0,0,4,1,36
"Elsastrasse 16, 8004 Zürich",,47.3771242,8.514328753943873,4001970464,5.0,120m²,81,1,337,1,112,1,29,1,108,1,18,1,0,0,8,1,0,0,4,1,20,1,9,1,28,1,0,0,26,1,780
"Chemin des Semailles 9 B, 1212 Grand-Lancy",,46.1795085,6.1206918,4001967227,5.0,120m²,8,1,66,1,3,1,2,1,14,1,1,1,1,1,4,1,0,0,0,0,16,1,14,1,9,1,0,0,33,1,171
"Mühlemattstrasse 11, 6374 Buochs",,46.97376468661957,8.418765948002582,4001966990,5.0,120m²,1,1,10,1,0,0,1,1,2,1,0,0,0,0,1,1,0,0,0,0,0,0,3,1,3,1,0,0,3,1,24
"Birsfelderstrasse 34, 4132 Muttenz",,47.5347248,7.634326,4001966134,5.0,120m²,1,1,17,1,2,1,0,0,5,1,3,1,0,0,2,1,0,0,1,1,4,1,2,1,2,1,0,0,13,1,52
"Apfelseestr. 9, 4143 Dornach",,47.47575195,7.609075814242029,4001962223,5.0,120m²,3,1,14,1,0,0,1,1,3,1,2,1,0,0,1,1,0,0,0,0,2,1,4,1,5,1,0,0,7,1,42
"Bergstrasse 14, 8953 Dietikon",,47.4041445,8.398524000000005,4001960538,5.0,120m²,7,1,29,1,6,1,2,1,22,1,0,0,0,0,0,0,0,0,0,0,3,1,5,1,6,1,0,0,18,1,98
"Guyer-Zeller-Strasse10, 8620 Wetzikon ZH",,,,4001955079,5.0,120m²,0,0,0,0,0,0,0,0,0,0,0,0,0,0,0,0,0,0,0,0,0,0,0,0,0,0,0,0,0,0,0
"Kempttalstrasse 78, 8308 Illnau-Effretikon",,47.41100875,8.724510062325784,4001953394,5.0,120m²,2,1,7,1,1,1,0,0,0,0,0,0,0,0,1,1,0,0,0,0,0,0,0,0,2,1,0,0,1,1,14
"Via Galli 8, 6600 Locarno",,46.16895456964882,8.787960044939735,4001948106,5.0,120m²,11,1,63,1,32,1,2,1,12,1,3,1,0,0,8,1,0,0,1,1,13,1,15,1,2,1,0,0,14,1,176
"Schipferstrasse 5, 8800 Thalwil",,47.2835233,8.574650081167732,4001937866,5.0,120m²,2,1,13,1,1,1,1,1,2,1,1,1,0,0,1,1,0,0,0,0,3,1,3,1,2,1,0,0,29,1,58
"Burgunderweg 46, 2505 Biel/Bienne",,47.1313327,7.218417510528404,4001912490,5.0,120m²,0,0,10,1,1,1,0,0,1,1,2,1,0,0,1,1,0,0,0,0,0,0,0,0,1,1,0,0,2,1,18
"Billoweg 3, 8038 Zürich",,47.3521244,8.531395453366446,4001910546,5.0,120m²,17,1,56,1,7,1,2,1,20,1,8,1,0,0,2,1,0,0,3,1,5,1,4,1,9,1,0,0,7,1,140
"Baselstrasse 95, 4153 Reinach",,47.505625550000005,7.6017265231786135,4001906397,5.0,120m²,0,0,12,1,0,0,0,0,0,0,4,1,0,0,1,1,0,0,0,0,1,1,0,0,2,1,0,0,5,1,25
"Werkgasse 28, 3018 Bern",,46.94342855,7.402900516018621,4001898329,5.0,120m²,10,1,48,1,4,1,0,0,15,1,1,1,0,0,2,1,0,0,2,1,6,1,3,1,6,1,0,0,14,1,111
"Winzerweg 9, 4123 Allschwil",,47.54724455,7.539286550000006,4001893464,5.0,120m²,5,1,13,1,0,0,0,0,2,1,0,0,0,0,0,0,0,0,0,0,3,1,2,1,5,1,0,0,4,1,34
"Haldenstrasse 8, 8045 Zürich",,47.363161149999996,8.518535792443249,4001893301,5.0,120m²,56,1,194,1,38,1,14,1,77,1,15,1,0,0,10,1,0,0,4,1,19,1,11,1,19,1,0,0,25,1,482
"Hauptstrasse 7, 4132 Muttenz",,47.5232867,7.644928819844468,4001892969,5.0,120m²,0,0,13,1,1,1,0,0,3,1,4,1,0,0,2,1,0,0,0,0,2,1,2,1,1,1,0,0,9,1,37
"Dammweg 35, 5610 Wohlen AG",,47.34419055,8.278715696733439,4001888521,5.0,120m²,2,1,16,1,3,1,2,1,4,1,3,1,0,0,1,1,0,0,0,0,4,1,6,1,7,1,0,0,10,1,58
"Via Monte Carmen 13, 6900 Lugano",,46.013463099999996,8.952825049999998,4001884400,3.0,49m²,45,1,108,1,35,1,13,1,39,1,9,1,6,1,20,1,0,0,2,1,33,1,26,1,18,1,2,1,23,1,379
"Sonnhaldenstrasse 1, 8113 Boppelsen",,47.47083325,8.402901931889762,4001883675,3.0,49m²,0,0,1,1,0,0,0,0,0,0,0,0,0,0,0,0,0,0,0,0,0,0,0,0,1,1,0,0,0,0,2
"Lungolago Giuseppe Motta 78, 6815 Melide",,45.9478196,8.9403066,4001871860,3.0,49m²,1,1,8,1,3,1,0,0,2,1,0,0,0,0,1,1,0,0,0,0,1,1,1,1,2,1,0,0,0,0,19
"Oberburgstrasse 90, 3400 Burgdorf",,47.04559505,7.62219187575692,4001867855,3.0,49m²,2,1,22,1,2,1,5,1,4,1,2,1,0,0,2,1,0,0,0,0,1,1,2,1,4,1,0,0,24,1,70
"Bernstrasse 149, 3400 Burgdorf",,47.05178875,7.609185739948456,4001852928,3.0,49m²,3,1,25,1,3,1,5,1,3,1,3,1,0,0,2,1,0,0,3,1,2,1,6,1,3,1,0,0,32,1,90
"Länggasse 43, 4624 Härkingen",,47.30563544239009,7.8159775588664955,4001847968,3.0,49m²,1,1,1,1,0,0,0,0,0,0,1,1,0,0,0,0,0,0,0,0,0,0,1,1,0,0,0,0,1,1,5
"Rainackerweg 70, 5303 Würenlingen",,47.5279237,8.248165,4001815017,3.0,49m²,2,1,4,1,0,0,0,0,2,1,0,0,0,0,1,1,0,0,0,0,1,1,1,1,0,0,0,0,3,1,14
"Via Mario Jaeggli 10, 6500 Bellinzona",,46.20418855377601,9.026276238479598,4001793303,3.0,49m²,4,1,26,1,15,1,4,1,6,1,4,1,0,0,4,1,0,0,0,0,7,1,3,1,9,1,0,0,10,1,92
"Länggenstrasse 3, 8184 Bachenbülach",,47.50265715553123,8.540043901235798,4001790468,3.0,49m²,0,0,9,1,0,0,1,1,5,1,0,0,0,0,1,1,0,0,0,0,2,1,0,0,2,1,0,0,8,1,28
"Worbigstrasse 10B, 8416 Flaach",,47.57571707567317,8.613739979021048,4001709598,3.0,49m²,0,0,1,1,0,0,0,0,0,0,0,0,0,0,0,0,0,0,0,0,0,0,0,0,1,1,0,0,0,0,2
"Rebenweid 26, 6332 Hagendorn",,47.19974985,8.431996999999999,4001678594,3.0,49m²,0,0,2,1,0,0,0,0,0,0,0,0,0,0,0,0,0,0,0,0,0,0,0,0,1,1,0,0,8,1,11
"Heimstr. 12, 9014 St. Gallen",,47.414502600000006,9.337264349999995,4001668923,3.0,49m²,4,1,11,1,1,1,1,1,3,1,3,1,0,0,1,1,0,0,0,0,3,1,1,1,4,1,0,0,18,1,50
"Via Crocetta 27a, 6962 Lugano",,46.01508128415641,8.966345803085744,4001668314,3.0,49m²,28,1,72,1,16,1,8,1,31,1,10,1,5,1,13,1,0,0,2,1,19,1,10,1,9,1,2,1,15,1,240
"Via Crocetta 25, 6962 Lugano",,46.01597435,8.966801499999999,4001668313,3.0,49m²,24,1,66,1,14,1,5,1,27,1,9,1,5,1,13,1,0,0,2,1,17,1,9,1,9,1,1,1,13,1,214
"Auweg 20, 4450 Sissach",,47.4709665,7.8018981341067875,4001668188,3.0,49m²,3,1,6,1,6,1,2,1,1,1,1,1,0,0,1,1,0,0,0,0,2,1,3,1,1,1,1,1,5,1,32
"Tulpenweg 19, 4153 Reinach",,47.4931212,7.5842139,4001608152,3.0,49m²,3,1,12,1,0,0,0,0,4,1,0,0,0,0,1,1,0,0,0,0,2,1,4,1,3,1,0,0,5,1,34
"Frohburgerstrasse 9, 4132 Muttenz",,47.5282337,7.6524755,4001510353,3.0,49m²,0,0,12,1,1,1,0,0,3,1,4,1,0,0,2,1,0,0,0,0,2,1,2,1,1,1,0,0,9,1,36
"Kronengasse 1, 5000 Aarau",,47.3929414,8.043904,4001447177,3.0,49m²,18,1,52,1,19,1,4,1,21,1,8,1,0,0,5,1,0,0,5,1,7,1,12,1,22,1,0,0,17,1,190
"Heidenlochstrasse 110, 4410 Liestal",,47.4787022,7.7509410451127785,4001190324,3.0,49m²,6,1,26,1,2,1,0,0,3,1,1,1,0,0,1,1,0,0,0,0,3,1,2,1,4,1,0,0,6,1,54
"Schlossbergweg 6b, 5400 Baden",,47.4726002,8.3052335,4001123839,3.0,49m²,26,1,53,1,18,1,3,1,15,1,3,1,0,0,1,1,0,0,3,1,7,1,8,1,12,1,1,1,27,1,177
"Zürcherstrasse 42, 8142 Uitikon Waldegg",,47.37024365,8.455823626386483,4002076836,4.5,170m²,2,1,4,1,0,0,0,0,0,0,0,0,0,0,1,1,0,0,0,0,1,1,1,1,1,1,0,0,1,1,11
"Bächtelenweg 3, 3084 Wabern",,46.925251200000005,7.455897556289661,4002076759,4.5,170m²,4,1,16,1,2,1,0,0,4,1,1,1,0,0,0,0,0,0,0,0,2,1,1,1,5,1,0,0,3,1,38
"Parkweg 2, 4852 Rothrist",,47.30602742185098,7.894973696697397,4002076367,4.5,170m²,1,1,13,1,1,1,0,0,0,0,1,1,0,0,1,1,0,0,0,0,2,1,2,1,1,1,0,0,16,1,38
"Parkweg 2, 4852 Rothrist",,47.30602742185098,7.894973696697397,4002076355,4.5,170m²,1,1,13,1,1,1,0,0,0,0,1,1,0,0,1,1,0,0,0,0,2,1,2,1,1,1,0,0,16,1,38
"Holeestrasse 101, 4054 Basel",,47.5451884,7.5686832,4002075874,4.5,170m²,15,1,51,1,7,1,2,1,6,1,4,1,0,0,5,1,0,0,1,1,16,1,9,1,7,1,0,0,5,1,128
"Hammerstrasse 92, 4057 Basel",,47.5646568,7.5957185,4002073300,4.5,170m²,82,1,229,1,67,1,14,1,64,1,9,1,1,1,17,1,1,1,2,1,28,1,18,1,27,1,0,0,21,1,580
"Parkweg 2, 4852 Rothrist",,47.30602742185098,7.894973696697397,4002072457,4.5,170m²,1,1,13,1,1,1,0,0,0,0,1,1,0,0,1,1,0,0,0,0,2,1,2,1,1,1,0,0,16,1,38
"Dietenrainweg 8, 8610 Uster",,47.33931025,8.716507492458366,4002063359,4.5,170m²,7,1,34,1,2,1,1,1,8,1,3,1,0,0,2,1,0,0,0,0,3,1,8,1,3,1,1,1,17,1,89
"Zürcherstrasse 35, 9500 Wil SG",,47.46471715,9.03736830541764,4002063238,4.5,170m²,7,1,40,1,8,1,1,1,4,1,9,1,0,0,2,1,0,0,0,0,4,1,7,1,9,1,1,1,3,1,95
"Im Kirchbrunnen 7, 8153 Rümlang",,47.4520824,8.5332495400413,4002062320,4.5,170m²,1,1,7,1,1,1,0,0,3,1,0,0,0,0,0,0,0,0,0,0,1,1,1,1,5,1,0,0,3,1,22
"Mühlestrasse 9, 6022 Grosswangen",,47.13506945,8.048150283694106,4002061078,4.5,170m²,1,1,4,1,0,0,0,0,1,1,0,0,0,0,1,1,0,0,0,0,0,0,0,0,0,0,0,0,1,1,8
"Teufenerstrasse 4, 9000 St. Gallen",,47.4209529,9.3713811,4002056374,4.5,170m²,42,1,130,1,47,1,6,1,27,1,12,1,0,0,10,1,0,0,2,1,8,1,14,1,25,1,1,1,30,1,354
"Klinkerweg 7, 4123 Allschwil",,47.5452581,7.544944903322781,4002055440,4.5,170m²,6,1,15,1,0,0,0,0,2,1,0,0,0,0,1,1,0,0,0,0,4,1,3,1,6,1,0,0,5,1,42
"Freihofstrasse 5A, 8280 Kreuzlingen",,47.65529565,9.167426163049452,4002055437,4.5,170m²,25,1,89,1,25,1,10,1,23,1,4,1,0,0,2,1,0,0,1,1,9,1,17,1,20,1,0,0,15,1,240
"Via Pazzalino 9, 6962 Viganello",,46.01512990755056,8.970530532761147,4002054436,4.5,170m²,21,1,55,1,12,1,4,1,23,1,9,1,5,1,12,1,0,0,2,1,16,1,7,1,8,1,0,0,13,1,187
"Wisentalweg 4, 9230 Flawil",,47.415097900000006,9.179842333162881,4002054435,4.5,170m²,4,1,11,1,1,1,0,0,2,1,1,1,0,0,1,1,0,0,0,0,1,1,1,1,5,1,0,0,7,1,34
"Quellenstrasse 5, 9240 Uzwil",,47.442487299999996,9.119662699999996,4002054428,4.5,170m²,0,0,6,1,1,1,0,0,5,1,1,1,0,0,1,1,0,0,0,0,1,1,2,1,3,1,0,0,3,1,23
"Rütteliweg 8, 4310 Rheinfelden",,47.55738085,7.8064739569889205,4002053674,4.5,170m²,8,1,19,1,4,1,1,1,6,1,1,1,0,0,1,1,0,0,2,1,4,1,9,1,2,1,0,0,9,1,66
"Via Tesserete 33, 6900 Massagno",,46.01194953517147,8.949353416936145,4002051398,4.5,170m²,45,1,106,1,36,1,12,1,37,1,10,1,6,1,19,1,0,0,1,1,32,1,25,1,17,1,2,1,23,1,371
"Kanalweg 38, 4800 Zofingen",,47.28255645,7.936357713109162,4002051396,4.5,170m²,10,1,27,1,1,1,5,1,3,1,1,1,0,0,3,1,0,0,0,0,5,1,7,1,4,1,0,0,4,1,70
"Via al Castello 12, 6964 Davesco-Soragno",,46.03655985739629,8.976160583156183,4002051392,4.5,97m²,2,1,10,1,1,1,0,0,0,0,4,1,0,0,3,1,0,0,0,0,3,1,2,1,3,1,0,0,14,1,42
"Langenmattstrasse 68, 8617 Mönchaltorf",,47.314177900000004,8.718913226426208,4002050988,4.5,97m²,1,1,3,1,0,0,0,0,0,0,0,0,0,0,1,1,0,0,0,0,0,0,1,1,1,1,0,0,1,1,8
"Bellariastrasse 81, 8038 Zürich",,47.34711055,8.529533334862611,4002050670,4.5,97m²,11,1,30,1,4,1,2,1,8,1,4,1,0,0,2,1,0,0,2,1,3,1,2,1,6,1,0,0,6,1,80
"Brotkorbstrasse 30 B, 4332 Stein AG",,47.54655414765215,7.952595984967506,4002050666,4.5,97m²,9,1,36,1,3,1,3,1,3,1,0,0,0,0,1,1,1,1,0,0,5,1,3,1,3,1,0,0,14,1,81
"Leimenstrasse 49, 4051 Basel",,47.5528828,7.5815009,4002050660,4.5,97m²,68,1,222,1,50,1,7,1,53,1,11,1,4,1,20,1,1,1,7,1,35,1,29,1,32,1,0,0,18,1,557
"Tösstalstrasse 3, 8332 Rumlikon",,47.4098043,8.759462143920961,4002050401,4.5,97m²,0,0,1,1,0,0,0,0,0,0,0,0,0,0,0,0,0,0,0,0,0,0,0,0,0,0,0,0,0,0,1
"Ramuzstrasse 17, 3027 Bern",,46.9447697,7.3756914,4002050076,4.5,97m²,6,1,26,1,4,1,0,0,7,1,1,1,0,0,2,1,0,0,1,1,5,1,4,1,10,1,0,0,8,1,74
"Im Wilacker 12, 4106 Therwil",,,,4002047845,4.5,97m²,0,0,0,0,0,0,0,0,0,0,0,0,0,0,0,0,0,0,0,0,0,0,0,0,0,0,0,0,0,0,0
"Rosengartenweg 8 C, 5417 Untersiggenthal",,47.49585585,8.264444219485597,4002046816,4.5,97m²,2,1,4,1,0,0,0,0,3,1,2,1,0,0,1,1,0,0,0,0,2,1,1,1,2,1,0,0,10,1,27
"Rennweg 43, 8001 Zürich",,47.3735089,8.5390344,4002046815,4.5,97m²,186,1,528,1,161,1,45,1,193,1,28,1,2,1,27,1,0,0,9,1,41,1,51,1,62,1,0,0,42,1,1375
"Zielhagweg 28, 8240 Thayngen",,47.7520187,8.700819450000001,4002046662,4.5,97m²,2,1,2,1,0,0,0,0,0,0,4,1,0,0,0,0,0,0,0,0,0,0,2,1,0,0,0,0,3,1,13
"Südstrasse 36, 2504 Biel/Bienne",,47.1425522,7.2741055822277865,4002046472,4.5,97m²,3,1,18,1,0,0,0,0,7,1,1,1,0,0,1,1,0,0,1,1,3,1,0,0,5,1,0,0,21,1,60
"Südstrasse 33, 2504 Biel/Bienne",,47.142795,7.272640641787747,4002046471,4.5,97m²,4,1,19,1,0,0,0,0,8,1,1,1,0,0,1,1,0,0,1,1,3,1,0,0,5,1,0,0,21,1,63
"Schollstrasse 3-13, 2504 Biel/Bienne",,47.14224475,7.2730028641108495,4002046470,4.5,97m²,3,1,19,1,0,0,0,0,8,1,2,1,0,0,1,1,0,0,1,1,3,1,0,0,5,1,0,0,22,1,64
"Lothringerstrasse 51, 4056 Basel",,47.56772825,7.577835327923802,4002044165,4.5,97m²,56,1,175,1,45,1,11,1,48,1,2,1,1,1,10,1,1,1,1,1,30,1,11,1,22,1,0,0,14,1,427
"Baslerstrasse 71, 8048 Zürich",,47.3856884,8.497091985801433,4002042483,4.5,97m²,33,1,100,1,4,1,2,1,35,1,20,1,0,0,2,1,0,0,5,1,9,1,7,1,20,1,0,0,29,1,266
"St. Alban-Anlage 59/61/63, 4052 Basel",,47.55273940119511,7.60301460462026,4002042477,4.5,97m²,66,1,204,1,48,1,7,1,52,1,11,1,4,1,17,1,0,0,8,1,30,1,30,1,30,1,0,0,29,1,536
"Freilager-Platz 4, 4142 Münchenstein",,47.5323852,7.6104069,4002042476,4.5,97m²,10,1,25,1,3,1,1,1,4,1,3,1,0,0,4,1,0,0,0,0,7,1,2,1,6,1,0,0,9,1,74
"Route de la Feuillère 21, 1010 Lausanne",,46.5353324,6.652067520123083,4002042472,4.5,97m²,7,1,20,1,2,1,1,1,3,1,1,1,0,0,7,1,0,0,2,1,13,1,5,1,4,1,0,0,27,1,92
"Stauffacherstrasse 1, 6020 Emmenbrücke",,47.0743514,8.28724384455263,4002039922,4.5,97m²,8,1,35,1,5,1,1,1,10,1,1,1,0,0,0,0,0,0,0,0,2,1,5,1,13,1,0,0,47,1,127
"Zieglerweg 53, 8240 Thayngen",,47.75149385,8.70152255,4002039796,4.0,92m²,2,1,2,1,0,0,0,0,0,0,4,1,0,0,0,0,0,0,0,0,0,0,2,1,0,0,0,0,3,1,13
"Via Beltramina 10, 6900 Lugano",,46.0170708,8.957293372791668,4002038669,4.0,92m²,39,1,92,1,23,1,11,1,33,1,10,1,5,1,20,1,0,0,2,1,26,1,20,1,17,1,2,1,21,1,321
"Im Pfauenhof 10, 11, 4410 Liestal",,,,4002038662,4.0,92m²,0,0,0,0,0,0,0,0,0,0,0,0,0,0,0,0,0,0,0,0,0,0,0,0,0,0,0,0,0,0,0
"Haslenstrasse 13, 8903 Birmensdorf ZH",,47.35900115,8.45976589798729,4002038655,4.0,92m²,2,1,4,1,0,0,0,0,0,0,1,1,0,0,1,1,0,0,0,0,1,1,1,1,1,1,0,0,1,1,12
"Rte du Coteau 31, 1752 Villars-sur-Glâne",,46.7929922,7.108139749618079,4002032853,4.0,92m²,0,0,6,1,1,1,0,0,1,1,0,0,0,0,1,1,0,0,0,0,2,1,0,0,0,0,0,0,5,1,16
"Grendelbachstrasse 45, 8307 Effretikon",,47.4219013,8.6923734,4002032173,4.0,92m²,1,1,14,1,1,1,2,1,3,1,1,1,0,0,1,1,0,0,0,0,2,1,3,1,3,1,0,0,15,1,46
"Schlossstr. 5c, 4133 Pratteln",,47.5215712,7.6964005,4002031440,4.0,92m²,1,1,16,1,1,1,0,0,4,1,2,1,0,0,1,1,0,0,0,0,3,1,2,1,6,1,0,0,6,1,42
"Schlossstr. 5e, 4133 Pratteln",,47.5219526,7.6962418,4002031439,4.0,92m²,1,1,16,1,1,1,0,0,4,1,2,1,0,0,1,1,0,0,0,0,3,1,2,1,6,1,0,0,6,1,42
"Voltastrasse 2, 6005 Luzern",,47.0407079,8.307770124491716,4002030767,4.0,92m²,44,1,149,1,43,1,13,1,31,1,6,1,3,1,1,1,0,0,1,1,6,1,13,1,15,1,1,1,90,1,416
"Seestrasse 46A, 8855 Wangen",,47.19467079720146,8.892427862473681,4002021045,4.0,92m²,2,1,10,1,0,0,0,0,2,1,2,1,0,0,0,0,0,0,0,0,0,0,1,1,0,0,0,0,6,1,23
"Hammerstrasse 61, 8032 Zürich",,47.3603217,8.5630643,4002018331,4.0,92m²,40,1,100,1,8,1,3,1,20,1,9,1,0,0,3,1,0,0,5,1,15,1,8,1,15,1,0,0,15,1,241
"Zur Stahlgiesserei 3, 8200 Schaffhausen",,47.70332075,8.63034981645054,4002009503,4.0,92m²,18,1,61,1,17,1,0,0,18,1,8,1,0,0,5,1,0,0,2,1,8,1,10,1,7,1,2,1,7,1,163
"Bruggstrasse 7, 4153 Reinach BL",,47.4907529,7.5909074,4002009498,4.0,92m²,4,1,16,1,0,0,1,1,5,1,1,1,0,0,1,1,0,0,0,0,3,1,6,1,4,1,0,0,2,1,43
"Ob der Müli, 8166 Niederweningen",,47.50809897646639,8.382890724469666,4002008739,4.0,92m²,1,1,2,1,0,0,1,1,3,1,2,1,0,0,1,1,0,0,0,0,0,0,2,1,2,1,0,0,0,0,14
"Marktstrasse 3, 2540 Grenchen",,47.193697,7.3972052,4002006071,4.0,92m²,3,1,18,1,0,0,2,1,2,1,1,1,0,0,1,1,0,0,1,1,1,1,1,1,2,1,0,0,2,1,34
"Vogelwinkel 4B, 6340 Baar",,47.1906121,8.5398663,4002005670,4.0,92m²,5,1,17,1,0,0,1,1,5,1,1,1,0,0,2,1,0,0,0,0,2,1,3,1,6,1,0,0,18,1,60
"Pfirsichstrasse 9, 8006 Zürich",,47.38945525,8.537542392590117,4002002556,4.0,92m²,84,1,231,1,64,1,17,1,113,1,21,1,1,1,11,1,0,0,7,1,19,1,10,1,32,1,0,0,20,1,630
"Schaffhauserstrasse 230 A, 8057 Zürich",,47.402217199999996,8.547022474097131,4002002543,4.0,92m²,19,1,87,1,14,1,2,1,36,1,12,1,3,1,7,1,0,0,3,1,11,1,8,1,15,1,0,0,33,1,250
"Poststrasse 98, 7050 Arosa",,46.780591400000006,9.678568732912016,4002000431,4.0,92m²,1,1,27,1,5,1,2,1,2,1,1,1,0,0,1,1,0,0,0,0,1,1,2,1,4,1,0,0,5,1,51
"Im Bruppach 15, 8703 Erlenbach ZH",,47.3046257,8.609070149999992,4001996340,4.0,92m²,1,1,8,1,0,0,0,0,1,1,0,0,0,0,1,1,0,0,0,0,1,1,1,1,3,1,0,0,4,1,20
"Büelstrasse 3, 8863 Buttikon SZ",,47.174651499999996,8.955432471863649,4001995448,4.5,124m²,2,1,9,1,0,0,0,0,0,0,0,0,0,0,0,0,0,0,0,0,0,0,0,0,1,1,0,0,1,1,13
"Hubelweg 5, 3504 Niederhünigen",,46.87578605,7.638747712829532,4001994870,4.5,124m²,1,1,4,1,1,1,0,0,1,1,0,0,0,0,0,0,0,0,0,0,1,1,2,1,3,1,0,0,0,0,13
"Gutenbergstr. 37, 3011 Bern",,46.9434251,7.434045,4001987280,4.5,124m²,66,1,222,1,48,1,9,1,81,1,12,1,32,1,31,1,1,1,10,1,26,1,17,1,45,1,0,0,27,1,627
"Tellstrasse 26, 3014 Bern",,46.9622983,7.4597325,4001981892,4.5,124m²,14,1,75,1,5,1,2,1,17,1,10,1,0,0,6,1,0,0,0,0,5,1,1,1,10,1,0,0,21,1,166
"Tellstrasse 26, 3014 Bern",,46.9622983,7.4597325,4001981830,4.5,124m²,14,1,75,1,5,1,2,1,17,1,10,1,0,0,6,1,0,0,0,0,5,1,1,1,10,1,0,0,21,1,166
"Grabenwies 20, 8057 Zürich",,47.40234495,8.537503571428573,4001980219,4.5,124m²,23,1,89,1,12,1,2,1,39,1,10,1,2,1,6,1,0,0,3,1,13,1,8,1,17,1,0,0,30,1,254
"Theaterstrasse 13, 6003 Luzern",,47.04987255,8.307012053641147,4001978464,4.5,124m²,56,1,199,1,53,1,16,1,42,1,10,1,2,1,3,1,0,0,3,1,8,1,15,1,21,1,1,1,75,1,504
"Marktplatz 14, 9000 St. Gallen",,47.426303,9.375243,4001976822,4.5,124m²,40,1,127,1,47,1,6,1,23,1,11,1,0,0,10,1,0,0,4,1,6,1,14,1,22,1,1,1,37,1,348
"Seemoosholzstrasse 20, 9320 Arbon",,47.5208443,9.423905756152205,4001976806,4.5,124m²,2,1,17,1,8,1,2,1,5,1,0,0,0,0,1,1,0,0,0,0,2,1,2,1,4,1,1,1,30,1,74
"Rue du Chêne 5, 1020 Renens",,46.5307907,6.5906664,4001974662,4.5,124m²,12,1,58,1,9,1,3,1,25,1,2,1,3,1,9,1,0,0,1,1,11,1,9,1,5,1,0,0,20,1,167
"Rue du Chêne 5, 1020 Renens",,46.5307907,6.5906664,4001974661,4.5,124m²,12,1,58,1,9,1,3,1,25,1,2,1,3,1,9,1,0,0,1,1,11,1,9,1,5,1,0,0,20,1,167
"Rue du Chêne 5, 1020 Renens",,46.5307907,6.5906664,4001974660,4.5,124m²,12,1,58,1,9,1,3,1,25,1,2,1,3,1,9,1,0,0,1,1,11,1,9,1,5,1,0,0,20,1,167
"Rue du Chêne 5, 1020 Renens",,46.5307907,6.5906664,4001974657,4.5,124m²,12,1,58,1,9,1,3,1,25,1,2,1,3,1,9,1,0,0,1,1,11,1,9,1,5,1,0,0,20,1,167
"Säntisstrasse, 9542 Münchwilen TG",,47.47440185249841,8.988025897811523,4001972101,4.5,124m²,1,1,8,1,3,1,0,0,2,1,2,1,0,0,0,0,0,0,0,0,1,1,3,1,1,1,0,0,7,1,28
"Nüchternweg 12, 3038 Kirchlindach",,47.0003111,7.4114947,4001971322,4.5,124m²,0,0,2,1,0,0,0,0,0,0,0,0,0,0,0,0,0,0,0,0,0,0,0,0,0,0,0,0,3,1,5
"Murtenstrasse 143 D, 3008 Bern",,46.9484633,7.4099937,4001970764,4.5,124m²,10,1,50,1,3,1,0,0,19,1,0,0,9,1,5,1,1,1,5,1,6,1,1,1,4,1,0,0,18,1,131
"Bühlstr. 4, 8954 Geroldswil",,47.42655245,8.411607736932847,4001966848,4.5,124m²,0,0,4,1,0,0,2,1,0,0,1,1,0,0,1,1,0,0,0,0,1,1,0,0,2,1,0,0,3,1,14
"Erikastrasse 1, 4057 Basel",,47.5715692,7.5910111,4001958798,4.5,124m²,47,1,165,1,51,1,14,1,50,1,3,1,1,1,5,1,0,0,0,0,22,1,8,1,22,1,0,0,12,1,400
"Hinterdorfstrasse 27, 8157 Dielsdorf",,47.4846367,8.4556048,4001958714,4.5,124m²,4,1,15,1,2,1,0,0,3,1,1,1,0,0,1,1,1,1,0,0,2,1,2,1,5,1,0,0,2,1,38
"Untere Bühlenstrasse, 8708 Männedorf",,47.259433601353514,8.685129579773593,4001954405,4.5,124m²,7,1,10,1,2,1,0,0,3,1,1,1,0,0,2,1,1,1,0,0,3,1,3,1,4,1,0,0,9,1,45
"Avenue De France 22, 1004 Lausanne",,46.5249493,6.6233321,4001953666,5.5,150m²,57,1,239,1,44,1,38,1,93,1,10,1,4,1,14,1,0,0,3,1,31,1,17,1,34,1,2,1,34,1,620
"Baselmattweg 87, 4123 Allschwil",,47.5553292,7.549207,4001943629,5.5,150m²,10,1,19,1,1,1,0,0,3,1,2,1,0,0,3,1,0,0,0,0,8,1,3,1,6,1,0,0,7,1,62
"Obere Schöntalstrasse 48, 8406 Winterthur",,47.4952892,8.7105785,4001939095,5.5,150m²,22,1,90,1,15,1,21,1,32,1,12,1,0,0,2,1,0,0,3,1,8,1,8,1,20,1,0,0,52,1,285
"Felsenaustrasse 13, 8704 Herrliberg",,47.28965035,8.607884033005254,4001933501,5.5,150m²,0,0,3,1,1,1,0,0,0,0,1,1,0,0,1,1,0,0,0,0,1,1,0,0,0,0,0,0,2,1,9
"Überlandstrasse 198, 8600 Dübendorf",,47.395456800000005,8.640347440101344,4001928257,5.5,150m²,3,1,13,1,1,1,0,0,8,1,0,0,0,0,0,0,0,0,0,0,1,1,0,0,0,0,0,0,27,1,53
"Erlenstrasse 12, 4410 Liestal",,47.4948097,7.7219152,4001902471,5.5,150m²,6,1,22,1,0,0,0,0,1,1,1,1,0,0,3,1,0,0,2,1,3,1,4,1,6,1,0,0,5,1,53
"Via Borenco 22, 6648 Minusio",,46.174454832996496,8.811003269702761,4001889310,5.5,150m²,8,1,53,1,22,1,3,1,6,1,1,1,0,0,4,1,0,0,1,1,10,1,13,1,3,1,0,0,15,1,139
"Am Schmittenbach 10 A, 5236 Remigen",,47.5141175,8.189743,4001867863,5.5,150m²,0,0,3,1,0,0,0,0,0,0,1,1,0,0,0,0,0,0,0,0,0,0,0,0,1,1,0,0,1,1,6
"Eichholzstrasse 35, 8620 Wetzikon ZH",,47.334924650000005,8.816746014793356,4001866303,5.5,150m²,4,1,5,1,1,1,1,1,3,1,3,1,0,0,0,0,0,0,1,1,1,1,1,1,1,1,0,0,17,1,38
"Via Mulino Rosso 8, 6517 Arbedo",,46.210834857009694,9.041734079584732,4001862435,5.5,150m²,2,1,4,1,2,1,0,0,3,1,0,0,0,0,1,1,0,0,0,0,1,1,1,1,4,1,0,0,10,1,28
"Zwickystrasse 30, 8304 Wallisellen",,47.4050721,8.6016424,4001858736,5.5,150m²,18,1,49,1,3,1,1,1,16,1,5,1,0,0,3,1,0,0,1,1,7,1,6,1,16,1,0,0,40,1,165
"Dorfstrasse 68, 8630 Rüti ZH",,47.25927284056309,8.850536587914371,4001856667,5.5,150m²,5,1,27,1,2,1,0,0,10,1,1,1,0,0,0,0,0,0,2,1,1,1,3,1,5,1,1,1,27,1,84
"Dorfstrasse 66a, 8630 Rüti ZH",,47.25927284056309,8.850536587914371,4001856666,5.5,150m²,5,1,27,1,2,1,0,0,10,1,1,1,0,0,0,0,0,0,2,1,1,1,3,1,5,1,1,1,27,1,84
"Gerbergasse 16/Rümelinplatz, 4001 Basel",,,,4001848695,5.5,150m²,0,0,0,0,0,0,0,0,0,0,0,0,0,0,0,0,0,0,0,0,0,0,0,0,0,0,0,0,0,0,0
"Route de Sion 81, 3960 Sierre",,46.2845187,7.5163885,4001841517,5.5,150m²,3,1,19,1,3,1,0,0,3,1,0,0,0,0,1,1,0,0,0,0,5,1,2,1,3,1,0,0,22,1,61
"Bernstrasse 141, 3400 Burgdorf",,47.05214545,7.61092275658309,4001838215,5.5,150m²,3,1,28,1,3,1,5,1,3,1,3,1,0,0,2,1,0,0,3,1,2,1,8,1,3,1,0,0,31,1,94
"Via Lugano 17, 6500 Bellinzona",,46.1889259,9.021616250000001,4001837441,5.5,150m²,7,1,34,1,18,1,4,1,5,1,4,1,0,0,9,1,0,0,0,0,9,1,5,1,7,1,0,0,4,1,106
"Am Oeschbrig 5, 8053 Zürich",,47.3572566,8.599926624130191,4001835702,5.5,150m²,8,1,9,1,0,0,0,0,2,1,0,0,0,0,2,1,0,0,2,1,2,1,3,1,3,1,0,0,14,1,45
"Gellertstrasse 2a, 4052 Basel",,47.5522254,7.605309,4001810866,5.5,150m²,56,1,179,1,36,1,8,1,49,1,10,1,4,1,12,1,0,0,8,1,27,1,29,1,27,1,0,0,29,1,474
"Iselisberg, 8524 Uesslingen-Buch",,47.5865601,8.8261897,4001803665,5.5,150m²,0,0,2,1,0,0,0,0,0,0,0,0,0,0,0,0,0,0,0,0,0,0,0,0,1,1,0,0,1,1,4
"Waffenplatzstrasse 80, 8002 Zürich",,47.355664250000004,8.526745374054133,4001790015,4.0,102m²,21,1,69,1,8,1,2,1,25,1,12,1,0,0,3,1,0,0,4,1,7,1,8,1,8,1,0,0,11,1,178
"Rue de la Fiaz 38, 2300 La Chaux-de-Fonds",,47.0893454,6.807948252817535,4001681223,4.0,102m²,3,1,10,1,2,1,0,0,1,1,2,1,0,0,2,1,0,0,0,0,2,1,1,1,1,1,0,0,3,1,27
"Rue des Musées 58, 2300 La Chaux-de-Fonds",,47.0996733,6.826494632796034,4001662189,4.0,102m²,33,1,62,1,13,1,4,1,14,1,1,1,0,0,7,1,0,0,2,1,9,1,7,1,3,1,0,0,7,1,162
"Rue du Nord 54, 2300 La Chaux-de-Fonds",,47.10687075,6.826619204339931,4001642199,4.0,102m²,31,1,57,1,13,1,5,1,13,1,1,1,0,0,7,1,0,0,2,1,7,1,6,1,3,1,0,0,6,1,151
"Via Montalbano 1, 6925 Gentilino",,45.992262141873915,8.935168034601803,4001442139,4.0,102m²,7,1,24,1,4,1,0,0,2,1,1,1,0,0,2,1,0,0,0,0,2,1,3,1,0,0,0,0,13,1,58
"Eggrainweg 7, 8803 Rüschlikon",,47.3060558,8.5483635,4001265800,4.0,102m²,3,1,13,1,0,0,1,1,2,1,4,1,0,0,0,0,0,0,0,0,2,1,1,1,2,1,0,0,14,1,42
"Hauptstrasse 41, 4437 Waldenburg",,47.3830863,7.748652,4001255523,4.0,102m²,1,1,5,1,0,0,0,0,0,0,0,0,0,0,1,1,0,0,0,0,1,1,1,1,3,1,0,0,2,1,14
"Amerbachstrasse 64, 4057 Basel",,47.5689904,7.5940014,4000976400,4.0,102m²,56,1,186,1,55,1,14,1,49,1,5,1,1,1,10,1,1,1,0,0,23,1,10,1,27,1,0,0,17,1,454
"Rue de la Fiaz 38, 2300 La Chaux-de-Fonds",,47.0893454,6.807948252817535,4000744811,4.0,102m²,3,1,10,1,2,1,0,0,1,1,2,1,0,0,2,1,0,0,0,0,2,1,1,1,1,1,0,0,3,1,27
"Rue de la Fiaz 38, 2300 La Chaux-de-Fonds",,47.0893454,6.807948252817535,4000744717,4.0,102m²,3,1,10,1,2,1,0,0,1,1,2,1,0,0,2,1,0,0,0,0,2,1,1,1,1,1,0,0,3,1,27
"Bahnhofstrasse 172, 6423 Seewen SZ",,47.0293613,8.6299986,3003296264,4.0,102m²,1,1,4,1,1,1,0,0,0,0,0,0,0,0,0,0,0,0,0,0,1,1,1,1,1,1,0,0,1,1,10
"Bahnhofstrasse 172, 6423 Seewen SZ",,47.0293613,8.6299986,3003296216,4.0,102m²,1,1,4,1,1,1,0,0,0,0,0,0,0,0,0,0,0,0,0,0,1,1,1,1,1,1,0,0,1,1,10
"Landstrasse 49, 5415 Nussbaumen",,47.4861515,8.2975326,4002078671,4.0,102m²,19,1,29,1,7,1,2,1,9,1,2,1,0,0,1,1,0,0,3,1,4,1,7,1,12,1,1,1,22,1,118
"Murgenthalstrasse 4C, 4900 Langenthal",,47.214987699999995,7.787946862508207,4002078590,4.0,102m²,8,1,40,1,7,1,2,1,6,1,2,1,0,0,2,1,0,0,2,1,6,1,9,1,8,1,0,0,34,1,126
"Ziegelhofstrasse 1, 8730 Uznach",,47.222219749999994,8.981310696907395,4002078153,4.0,102m²,3,1,9,1,0,0,1,1,2,1,8,1,0,0,1,1,0,0,1,1,2,1,3,1,2,1,0,0,5,1,37
"Waldmeisterstrasse 46, 3018 Bern",,46.9393001,7.3822752,4002076914,4.0,102m²,7,1,33,1,4,1,0,0,11,1,1,1,0,0,2,1,0,0,1,1,6,1,4,1,10,1,0,0,9,1,88
"Bibersteinerstrasse 41A, 5022 Rombach",,47.404305949999994,8.049133592598787,4002075578,4.0,102m²,14,1,45,1,17,1,4,1,16,1,4,1,0,0,2,1,0,0,3,1,7,1,13,1,19,1,0,0,13,1,157
"Culmannstrasse 20, 8006 Zürich",,47.38044745,8.547529883985145,4002075344,4.0,102m²,140,1,357,1,91,1,31,1,133,1,24,1,2,1,24,1,0,0,7,1,29,1,34,1,48,1,0,0,31,1,951
"Sandgrubenstrasse 18, 8330 Pfäffikon ZH",,47.3696913,8.777423723618387,4002075315,4.0,102m²,2,1,15,1,3,1,0,0,2,1,0,0,0,0,1,1,0,0,1,1,2,1,4,1,3,1,0,0,0,0,33
"Stationsstrasse 17, 8604 Volketswil",,47.3866634,8.670496886834925,4002074494,4.0,102m²,2,1,14,1,1,1,0,0,12,1,1,1,0,0,1,1,0,0,0,0,3,1,3,1,6,1,0,0,14,1,57
"Untermatt 2, 8902 Urdorf",,47.390845299999995,8.417148876306438,4002073826,5.5,140m²,2,1,10,1,1,1,2,1,1,1,1,1,0,0,0,0,0,0,0,0,1,1,0,0,2,1,0,0,9,1,29
"Akazienweg 22, 8500 Frauenfeld",,47.5555129,8.8849376,4002073576,5.5,140m²,16,1,42,1,21,1,1,1,27,1,3,1,0,0,2,1,0,0,2,1,4,1,5,1,12,1,1,1,4,1,140
"Fluhmattstrasse 31, 5400 Baden",,47.481467949999995,8.280336251021026,4002071968,5.5,140m²,1,1,9,1,2,1,0,0,0,0,0,0,0,0,1,1,0,0,0,0,1,1,3,1,3,1,0,0,6,1,26
"Mutschellenplatz 1 (Bolleri), 8964 Rudolfstetten",,,,4002066213,5.5,140m²,0,0,0,0,0,0,0,0,0,0,0,0,0,0,0,0,0,0,0,0,0,0,0,0,0,0,0,0,0,0,0
"Schulweg 3, 5453 Remetschwil",,47.4081806,8.327730330427364,4002060883,5.5,140m²,0,0,4,1,0,0,0,0,1,1,0,0,0,0,0,0,0,0,0,0,0,0,1,1,2,1,0,0,3,1,11
"Chapfstrasse 13, 8625 Gossau",,47.304239800000005,8.76004094799984,4002059591,5.5,140m²,0,0,6,1,0,0,0,0,2,1,0,0,0,0,0,0,0,0,0,0,2,1,1,1,2,1,0,0,0,0,13
"Auf den Fiechten 4, 4147 Aesch BL",,47.48022,7.595008,4002055443,5.5,140m²,4,1,22,1,0,0,1,1,6,1,2,1,0,0,1,1,0,0,0,0,2,1,7,1,5,1,0,0,6,1,56
"Erlenweg 12, 5036 Oberentfelden",,47.359714,8.043743221414639,4002055434,5.5,140m²,4,1,12,1,2,1,1,1,8,1,1,1,0,0,2,1,0,0,0,0,4,1,2,1,3,1,0,0,0,0,39
"Gartenstrasse 4, 9320 Arbon",,47.5165508,9.4260351,4002055432,5.5,140m²,2,1,18,1,8,1,2,1,5,1,0,0,0,0,1,1,0,0,0,0,2,1,2,1,4,1,1,1,41,1,86
"Schiffackerweg 2, 4310 Rheinfelden",,47.5502851,7.803016,4002054441,5.5,140m²,7,1,16,1,3,1,1,1,3,1,1,1,0,0,1,1,0,0,2,1,5,1,8,1,2,1,0,0,9,1,58
"Altstetterstrasse 247 + 249, 8048 Zürich",,47.38419007709569,8.48442893979978,4002051424,5.5,140m²,25,1,75,1,2,1,2,1,30,1,18,1,0,0,1,1,0,0,1,1,7,1,6,1,13,1,0,0,24,1,204
"Zähringerstrasse 18, 4057 Basel",,47.5699369,7.5884312,4002051399,5.5,140m²,57,1,197,1,55,1,14,1,54,1,3,1,2,1,11,1,1,1,0,0,28,1,12,1,27,1,0,0,11,1,472
"Erlenmattweg 7, 4058 Basel",,47.5694446,7.6017367,4002051268,5.5,140m²,41,1,139,1,43,1,13,1,39,1,3,1,1,1,5,1,0,0,0,0,17,1,6,1,18,1,0,0,14,1,339
"Nordeckstrasse 10, 8636 Wald ZH",,47.2680332,8.9159312,4002051266,5.5,140m²,1,1,7,1,2,1,1,1,2,1,0,0,0,0,1,1,0,0,0,0,1,1,3,1,1,1,0,0,3,1,22
"Altstetterstrasse 247 + 249, 8048 Zürich",,47.38419007709569,8.48442893979978,4002050974,5.5,140m²,25,1,75,1,2,1,2,1,30,1,18,1,0,0,1,1,0,0,1,1,7,1,6,1,13,1,0,0,24,1,204
"Altstetterstrasse 247 + 249, 8048 Zürich",,47.38419007709569,8.48442893979978,4002050973,5.5,140m²,25,1,75,1,2,1,2,1,30,1,18,1,0,0,1,1,0,0,1,1,7,1,6,1,13,1,0,0,24,1,204
"Altstetterstrasse 247 + 249, 8048 Zürich",,47.38419007709569,8.48442893979978,4002050972,5.5,140m²,25,1,75,1,2,1,2,1,30,1,18,1,0,0,1,1,0,0,1,1,7,1,6,1,13,1,0,0,24,1,204
"Lerchenhalde 4, 8703 Erlenbach ZH",,47.3075037,8.597878694041455,4002048658,5.5,140m²,2,1,9,1,1,1,0,0,1,1,1,1,0,0,1,1,0,0,0,0,1,1,1,1,5,1,0,0,5,1,27
"Buckhauserstrasse 49, 8048 Zürich",,47.38425,8.4941461,4002047849,5.5,140m²,29,1,84,1,1,1,2,1,35,1,19,1,0,0,2,1,0,0,2,1,9,1,7,1,18,1,0,0,27,1,235
"Papillonallee 21a, 3172 Niederwangen BE",,46.928965649999995,7.38840559959643,4002046683,5.5,140m²,0,0,13,1,3,1,0,0,4,1,0,0,0,0,2,1,0,0,1,1,2,1,3,1,5,1,0,0,2,1,35
"Papillonallee 15b, 3172 Niederwangen BE",,46.9293239,7.387921476002995,4002046680,3.5,93m²,0,0,13,1,3,1,0,0,4,1,0,0,0,0,2,1,0,0,1,1,2,1,3,1,5,1,0,0,2,1,35
"Gartenstrasse 6, 8002 Zürich",,47.3688989,8.5346665,4002042468,3.5,93m²,183,1,522,1,159,1,46,1,193,1,22,1,2,1,26,1,0,0,11,1,39,1,50,1,60,1,0,0,40,1,1353
"Kieshübelweg 2, 4310 Rheinfelden",,47.5484714,7.7761875,4002042222,3.5,93m²,11,1,18,1,3,1,1,1,8,1,0,0,0,0,0,0,0,0,1,1,5,1,9,1,2,1,1,1,12,1,71
"Rue Louis-D'Affry 6, 1700 Fribourg",,46.80358593281353,7.150016759877996,4002039938,3.5,93m²,24,1,93,1,14,1,6,1,37,1,3,1,6,1,10,1,1,1,0,0,12,1,13,1,14,1,0,0,45,1,278
"Erlenmattstrasse 18, 4058 Basel",,47.5696198,7.6003248,4002039720,3.5,93m²,40,1,143,1,46,1,13,1,41,1,4,1,1,1,5,1,0,0,0,0,18,1,6,1,18,1,0,0,16,1,351
"Via Quinta 59, 6710 Biasca",,46.349700944512584,8.972572549112444,4002038670,3.5,93m²,0,0,6,1,0,0,0,0,2,1,0,0,0,0,2,1,0,0,0,0,3,1,3,1,4,1,0,0,2,1,22
"Via Beltramina 8, 6900 Lugano",,46.01733183132692,8.956635744418996,4002038668,3.5,93m²,38,1,89,1,22,1,9,1,33,1,10,1,5,1,20,1,0,0,2,1,26,1,18,1,17,1,2,1,21,1,312
"Bahnhofstrasse 7, 4415 Lausen",,47.4704259,7.760250659513142,4002038663,3.5,93m²,0,0,5,1,0,0,0,0,2,1,1,1,0,0,0,0,0,0,0,0,0,0,1,1,1,1,0,0,2,1,12
"Berntorgasse 16, 3600 Thun",,46.76093845,7.62720647145314,4002037350,3.5,93m²,12,1,62,1,15,1,6,1,13,1,1,1,0,0,1,1,1,1,0,0,6,1,9,1,9,1,2,1,31,1,168
"Zwischenbächen 8, 8048 Zürich",,47.385465249999996,8.480893407862188,4002036031,3.5,93m²,21,1,67,1,2,1,2,1,28,1,15,1,0,0,1,1,0,0,1,1,7,1,6,1,13,1,0,0,21,1,184
"Steigstr. 36, 8200 Schaffhausen",,47.6959401,8.6293407,4002034028,3.5,93m²,19,1,64,1,17,1,0,0,19,1,6,1,0,0,4,1,0,0,2,1,9,1,11,1,8,1,4,1,12,1,175
"Bois de la Chapelle 63, 1213 Onex",,46.1890413,6.102466,4002029971,3.5,93m²,3,1,31,1,0,0,0,0,4,1,3,1,0,0,1,1,1,1,0,0,7,1,3,1,6,1,0,0,16,1,75
"Margrethenstrasse 3, 4103 Bottmingen",,47.527083399999995,7.573730799999999,4002023503,3.5,93m²,2,1,13,1,1,1,0,0,2,1,2,1,0,0,1,1,0,0,0,0,3,1,2,1,1,1,0,0,5,1,32
"Kranichweg 34, 3074 Muri b. Bern",,,,4002023034,3.5,93m²,0,0,0,0,0,0,0,0,0,0,0,0,0,0,0,0,0,0,0,0,0,0,0,0,0,0,0,0,0,0,0
"Kranichweg 4, 3074 Muri b. Bern",,,,4002023033,3.5,93m²,0,0,0,0,0,0,0,0,0,0,0,0,0,0,0,0,0,0,0,0,0,0,0,0,0,0,0,0,0,0,0
"Gellertpark 4, 4052 Basel",,47.5523999,7.6088055,4002018499,3.5,93m²,36,1,106,1,21,1,3,1,17,1,4,1,4,1,9,1,0,0,7,1,13,1,20,1,14,1,0,0,30,1,284
"Avenue du Temple 1-3, 1020 Renens VD",,46.53648792285093,6.588527170146207,4002017369,3.5,93m²,10,1,48,1,5,1,2,1,20,1,3,1,2,1,6,1,0,0,1,1,10,1,8,1,4,1,0,0,17,1,136
"Lochäckerstrasse 12, 8302 Kloten",,47.44462435,8.590296690387076,4002017366,3.5,93m²,5,1,16,1,2,1,1,1,1,1,1,1,0,0,1,1,0,0,0,0,4,1,5,1,1,1,0,0,5,1,42
"Oberer Rheinweg 35, 4058 Basel",,47.5596364,7.5922363,4002009966,3.5,93m²,81,1,270,1,67,1,15,1,74,1,10,1,2,1,19,1,1,1,6,1,36,1,24,1,34,1,0,0,19,1,658
"Stauffacherstrasse 7, 9000 St. Gallen",,47.4233828,9.363545290413684,4002004590,3.5,93m²,40,1,124,1,47,1,6,1,26,1,10,1,0,0,8,1,0,0,2,1,8,1,14,1,23,1,1,1,29,1,338
"Girhaldenstrasse 20, 8048 Zürich",,47.3887106,8.4778869,4001998768,2.5,38m²,17,1,56,1,2,1,1,1,25,1,12,1,0,0,1,1,0,0,1,1,4,1,4,1,9,1,0,0,14,1,146
"Im Römerquartier 4A, 4800 Zofingen",,47.2842437,7.9478069,4001980238,2.5,38m²,10,1,26,1,1,1,5,1,3,1,1,1,0,0,3,1,0,0,0,0,5,1,7,1,2,1,0,0,4,1,67
"Centralweg 16, 3013 Bern",,46.9568007,7.4460501,4001976792,2.5,38m²,65,1,223,1,54,1,11,1,67,1,11,1,36,1,32,1,0,0,3,1,22,1,17,1,46,1,1,1,18,1,606
"Hegenheimerstrasse 47, 4055 Basel",,47.5602871,7.572334,4001964147,2.5,38m²,45,1,154,1,44,1,7,1,38,1,8,1,1,1,13,1,1,1,1,1,28,1,7,1,17,1,0,0,13,1,377
"Radarstrasse 7, 3013 Bern",,46.9544023,7.4583427,4001963761,2.5,38m²,47,1,195,1,47,1,10,1,43,1,15,1,10,1,11,1,0,0,0,0,20,1,14,1,33,1,0,0,19,1,464
"Lörracherstrasse 146, 4125 Riehen",,47.593975650000004,7.655076756066734,4001962645,2.5,38m²,8,1,19,1,1,1,1,1,3,1,1,1,0,0,2,1,0,0,0,0,4,1,6,1,7,1,0,0,11,1,63
"Büchelring 7, 8134 Adliswil",,47.3008182,8.5204045,4001962409,2.5,38m²,2,1,10,1,0,0,0,0,2,1,3,1,0,0,0,0,0,0,0,0,2,1,4,1,2,1,0,0,6,1,31
"Torggelstrasse 12, 8265 Mammern",,47.64235715,8.913912191645869,4001961365,2.5,38m²,0,0,2,1,0,0,0,0,0,0,0,0,0,0,0,0,0,0,0,0,0,0,0,0,0,0,0,0,3,1,5
"Bachlettenstrasse 47, 4054 Basel",,47.5485763,7.5792627,4001961205,2.5,38m²,65,1,182,1,29,1,7,1,38,1,12,1,4,1,22,1,1,1,7,1,30,1,28,1,25,1,0,0,16,1,466
"Lessingstrasse 9, 8002 Zürich",,47.3589702,8.524235995596992,4001955020,2.5,38m²,31,1,115,1,20,1,3,1,47,1,13,1,0,0,4,1,0,0,5,1,12,1,15,1,16,1,0,0,17,1,298
"Rosengartenhalde 9B, 6006 Luzern",,47.05582685,8.33943285,4001908721,2.5,38m²,1,1,10,1,1,1,0,0,0,0,1,1,1,1,0,0,0,0,1,1,1,1,1,1,2,1,0,0,9,1,28
"Bahnhofstrasse 29, 6162 Entlebuch",,46.99279905,8.062181943454604,4001879398,2.5,38m²,0,0,3,1,0,0,0,0,0,0,1,1,0,0,1,1,0,0,0,0,1,1,1,1,1,1,0,0,1,1,9
"Dorfstrasse 68, 8630 Rüti ZH",,47.25927284056309,8.850536587914371,4001858474,2.5,38m²,5,1,27,1,2,1,0,0,10,1,1,1,0,0,0,0,0,0,2,1,1,1,3,1,5,1,1,1,27,1,84
"Neuhardstrasse 11, 4600 Olten",,47.3491937,7.9097581,4001858368,2.5,38m²,16,1,50,1,14,1,4,1,20,1,2,1,0,0,2,1,0,0,1,1,5,1,9,1,5,1,0,0,15,1,143
"Dorfstrasse 66, 8630 Rüti ZH",,47.259273900000004,8.85609225,4001858314,2.5,38m²,5,1,25,1,2,1,0,0,10,1,1,1,0,0,0,0,0,0,2,1,1,1,3,1,5,1,1,1,27,1,82
"Dorfstrasse 68, 8630 Rüti ZH",,47.259273900000004,8.85609225,4001856669,2.5,38m²,5,1,25,1,2,1,0,0,10,1,1,1,0,0,0,0,0,0,2,1,1,1,3,1,5,1,1,1,27,1,82
"Klingentalgraben 37, 4057 Basel",,47.5642678,7.5911068,4001852654,2.5,38m²,78,1,262,1,71,1,15,1,68,1,9,1,2,1,17,1,1,1,3,1,33,1,20,1,34,1,0,0,16,1,629
"Niederdorfstrasse 37, 8001 Zürich",,47.37487745,8.543692238869863,4001836989,2.5,38m²,174,1,491,1,146,1,44,1,186,1,30,1,2,1,27,1,0,0,9,1,43,1,51,1,62,1,0,0,46,1,1311
"Madretschstrasse 72, 2503 Bienne",,47.134571,7.2555474,4001809267,2.5,38m²,34,1,91,1,31,1,1,1,40,1,14,1,3,1,4,1,0,0,4,1,11,1,10,1,21,1,0,0,46,1,310
"Beckenmoosstrasse 10, 8586 Riedt b. Erlen",,47.547846907271904,9.218592585520312,4001799566,2.5,38m²,0,0,1,1,0,0,0,0,0,0,0,0,0,0,0,0,0,0,0,0,0,0,2,1,0,0,0,0,0,0,3
"Missionsstrasse 21D, 4055 Basel",,47.5584801,7.57686,4001786521,3.5,,70,1,213,1,60,1,9,1,61,1,9,1,1,1,17,1,1,1,4,1,34,1,15,1,30,1,0,0,16,1,540
"Viale Serfontana, 6834 Morbio Inferiore",,45.84765255769844,9.014801828419085,4001762406,3.5,,1,1,18,1,23,1,0,0,5,1,0,0,0,0,3,1,0,0,0,0,6,1,3,1,3,1,0,0,2,1,64
"Amerbachstrasse 66, 4057 Basel",,47.5692456,7.5941997,4001761552,3.5,,55,1,184,1,54,1,14,1,50,1,5,1,1,1,10,1,1,1,0,0,23,1,10,1,27,1,0,0,17,1,451
"Kirchweg 30, 8102 Oberengstringen",,47.4051629,8.4733558,4001677568,3.5,,2,1,18,1,1,1,0,0,3,1,0,0,0,0,2,1,0,0,2,1,1,1,0,0,2,1,0,0,3,1,34
"Via Sasso Corbaro 19, 6593 Cadenazzo",,46.15130057952928,8.944419531213565,4001668529,3.5,,3,1,4,1,2,1,1,1,1,1,0,0,0,0,2,1,0,0,0,0,3,1,1,1,0,0,0,0,0,0,17
"Mattenstrasse 81, 2503 Biel",,47.13653564014356,7.254708116929318,4001495431,3.5,,35,1,90,1,30,1,1,1,39,1,14,1,3,1,4,1,0,0,4,1,11,1,9,1,20,1,0,0,46,1,306
"Alleestrasse 7, 2503 Biel",,47.13458171730643,7.254391997657591,4001495422,3.5,,34,1,95,1,33,1,1,1,41,1,15,1,3,1,4,1,0,0,4,1,12,1,10,1,22,1,0,0,46,1,320
"Rue de la Fiaz 38, 2300 La Chaux-de-Fonds",,47.0893454,6.807948252817535,4001464139,3.5,,3,1,10,1,2,1,0,0,1,1,2,1,0,0,2,1,0,0,0,0,2,1,1,1,1,1,0,0,3,1,27
"Veia Soras 33, 7460 Savognin",,46.60111125,9.604059085660328,4001457125,3.5,,2,1,3,1,3,1,0,0,0,0,1,1,0,0,1,1,0,0,0,0,1,1,2,1,4,1,0,0,4,1,21
"Alte Gockhauserstrasse 4, 8044 Gockhausen",,47.381631,8.59493805,4001413820,3.5,,0,0,6,1,0,0,0,0,1,1,1,1,0,0,0,0,0,0,0,0,0,0,0,0,0,0,0,0,3,1,11
"Hauptstrasse 10, 4147 Aesch BL",,47.4644298,7.6016969,4001044152,3.5,,1,1,8,1,0,0,0,0,0,0,1,1,0,0,1,1,0,0,0,0,1,1,1,1,2,1,0,0,7,1,22
"Zürcherstrasse 15, 8852 Altendorf",,47.1924468,8.82838524449879,4002081715,3.5,,2,1,8,1,0,0,0,0,0,0,0,0,0,0,1,1,0,0,0,0,0,0,2,1,0,0,0,0,11,1,24
"Waldi 9, 6222 Beromünster",,47.18739425,8.167430249999999,4002081639,3.5,,0,0,1,1,0,0,0,0,0,0,0,0,0,0,0,0,0,0,0,0,0,0,0,0,0,0,0,0,0,0,1
"Bückenweg 33, 4126 Bettingen",,47.570060350000006,7.6608530951456295,4002081202,3.5,,0,0,1,1,0,0,0,0,0,0,0,0,0,0,0,0,0,0,0,0,0,0,0,0,0,0,0,0,1,1,2
"Rainstrassse 14a, 8307 Effretikon",,,,4002081144,3.5,,0,0,0,0,0,0,0,0,0,0,0,0,0,0,0,0,0,0,0,0,0,0,0,0,0,0,0,0,0,0,0
"Herrgass 2, 8413 Neftenbach",,47.524442500000006,8.659340000000002,4002081023,3.5,,2,1,1,1,0,0,0,0,2,1,1,1,0,0,1,1,0,0,0,0,1,1,1,1,6,1,0,0,1,1,16
"Dorfstrasse 57, 3438 Lauperswil",,46.96579,7.742265980739813,4002080962,3.5,,0,0,3,1,0,0,0,0,1,1,0,0,0,0,0,0,0,0,0,0,0,0,1,1,2,1,0,0,1,1,8
"Hiltystrasse 25, 3006 Bern",,46.9343912,7.475397,4002079590,3.5,,3,1,16,1,0,0,0,0,3,1,1,1,0,0,0,0,0,0,0,0,6,1,3,1,6,1,0,0,6,1,44
"Rebacker 13, 8905 Arni",,47.3191594,8.4172399,4002079584,3.5,,1,1,0,0,0,0,0,0,0,0,1,1,0,0,1,1,0,0,0,0,0,0,0,0,1,1,0,0,0,0,4
"Bovelweg 18, 7304 Maienfeld",,47.01560265,9.544091185645122,4002079466,3.5,,1,1,1,1,0,0,0,0,1,1,0,0,0,0,1,1,0,0,0,0,0,0,1,1,1,1,0,0,2,1,8
"Hauptstrasse 22, 8586 Riedt b. Erlen",,47.54601493929233,9.208286522922615,4002078072,4.5,121m²,0,0,2,1,0,0,0,0,0,0,0,0,0,0,0,0,0,0,0,0,0,0,1,1,0,0,0,0,0,0,3
"Turnerstrasse 18, 8006 Zürich",,47.384702149999995,8.544353751317338,4002078048,4.5,121m²,119,1,306,1,87,1,31,1,128,1,22,1,2,1,23,1,0,0,9,1,23,1,20,1,46,1,0,0,24,1,840
"Engerainhalde 10, 3613 Steffisburg",,46.7807866,7.611936462533876,4002077719,4.5,121m²,2,1,8,1,0,0,0,0,1,1,2,1,0,0,0,0,0,0,0,0,0,0,2,1,3,1,0,0,4,1,22
"Langägertenstrasse 22, 8125 Zollikerberg",,47.344475450000004,8.596223350954984,4002076412,4.5,121m²,4,1,7,1,0,0,0,0,0,0,0,0,0,0,1,1,0,0,2,1,0,0,1,1,3,1,0,0,13,1,31
"Underbach 19, 8494 Bauma",,47.372953949999996,8.86868753088877,4002075380,4.5,121m²,1,1,5,1,1,1,0,0,1,1,0,0,0,0,0,0,0,0,0,0,0,0,2,1,0,0,0,0,0,0,10
"Promenada 35b, 7018 Flims",,46.82793445,9.28826024334023,4002074918,4.5,121m²,9,1,22,1,5,1,0,0,2,1,0,0,0,0,1,1,0,0,0,0,2,1,2,1,2,1,0,0,10,1,55
"Laubisrütistrasse 53, 8712 Stäfa",,47.23907335,8.74622725,4002074913,4.5,121m²,1,1,6,1,0,0,0,0,0,0,0,0,0,0,1,1,0,0,0,0,0,0,0,0,0,0,0,0,10,1,18
"Oberwilerstrasse 27, 4106 Therwil",,47.5011527,7.5533118,4002074480,4.5,121m²,1,1,9,1,0,0,1,1,0,0,1,1,0,0,0,0,0,0,0,0,4,1,1,1,2,1,0,0,12,1,31
"Herbstweg 77, 8050 Zürich",,47.4064039,8.5626009,4002073985,4.5,121m²,14,1,70,1,11,1,3,1,22,1,11,1,2,1,5,1,0,0,1,1,7,1,9,1,11,1,0,0,29,1,195
"Riedstrasse 1, 8914 Aeugstertal",,47.28671065,8.481126199999999,4002073972,4.5,121m²,0,0,1,1,0,0,0,0,0,0,0,0,0,0,0,0,0,0,0,0,0,0,0,0,0,0,0,0,2,1,3
"Kirchweg 3, 5622 Waltenschwil",,47.333912749999996,8.301122100000002,4002073696,4.5,121m²,1,1,4,1,0,0,0,0,0,0,0,0,0,0,0,0,0,0,0,0,0,0,1,1,1,1,0,0,4,1,11
"Dorfstrasse 51, 8192 Glattfelden",,47.5585478,8.502958,4002073617,4.5,121m²,1,1,3,1,0,0,0,0,0,0,0,0,0,0,0,0,0,0,0,0,0,0,0,0,1,1,0,0,6,1,11
"Ausserdorf 15, 5705 Hallwil",,47.3260912,8.179163397448097,4002073572,4.5,121m²,1,1,1,1,0,0,0,0,0,0,1,1,0,0,2,1,0,0,0,0,0,0,0,0,0,0,0,0,3,1,8
"Grampenweg 29, 8180 Bülach",,47.5168349,8.535016696550846,4002073464,4.5,121m²,1,1,26,1,2,1,2,1,10,1,0,0,0,0,1,1,0,0,0,0,4,1,7,1,3,1,0,0,10,1,66
"Plattenstrasse 15, 8706 Meilen",,47.2715848,8.637940756052142,4002073384,4.5,121m²,0,0,5,1,0,0,0,0,2,1,1,1,0,0,0,0,0,0,0,0,2,1,4,1,1,1,0,0,2,1,17
4202 Duggingen,,47.452058338444445,7.606126141222222,4002073307,4.5,121m²,0,0,3,1,0,0,0,0,0,0,0,0,0,0,0,0,0,0,0,0,0,0,0,0,0,0,0,0,2,1,5
"Chastli 40, 8718 Schänis",,47.1636044,9.054859408769763,4002072656,4.5,121m²,0,0,2,1,0,0,0,0,0,0,0,0,0,0,1,1,0,0,0,0,0,0,1,1,0,0,0,0,2,1,6
"Kruft 6, 9425 Thal",,47.46471255,9.57227649864157,4002072569,4.5,121m²,3,1,13,1,2,1,1,1,1,1,5,1,0,0,1,1,0,0,0,0,1,1,2,1,2,1,0,0,13,1,44
"Dorfstrasse 1, 8934 Knonau",,47.223993,8.462869335753219,4002072547,4.5,121m²,0,0,0,0,0,0,0,0,0,0,1,1,0,0,1,1,0,0,0,0,0,0,0,0,0,0,0,0,0,0,2
"Neubadstrasse 149, 4054 Basel",,47.5469038,7.565355,4002072378,4.5,121m²,11,1,42,1,3,1,1,1,5,1,3,1,0,0,3,1,0,0,1,1,13,1,7,1,7,1,0,0,5,1,101
"Lombardeiweg 12, 3904 Naters",,46.32691389480042,7.988903061959285,4002071726,5.0,96m²,5,1,34,1,3,1,1,1,5,1,3,1,0,0,2,1,0,0,0,0,7,1,5,1,1,1,0,0,5,1,71
"Dorfstrasse 45, 5436 Würenlos",,47.44325035,8.3651756,4002071702,5.0,96m²,3,1,7,1,1,1,0,0,2,1,1,1,0,0,0,0,0,0,0,0,1,1,1,1,4,1,0,0,2,1,22
"Oberdorfstrasse 43, 8874 Mühlehorn",,47.1165534,9.17123933169014,4002071697,5.0,96m²,0,0,2,1,0,0,0,0,0,0,0,0,0,0,0,0,0,0,0,0,0,0,0,0,0,0,0,0,1,1,3
"Bättwilerstrasse 37, 4108 Witterswil",,47.48694305,7.519845104275655,4002071526,5.0,96m²,0,0,2,1,0,0,0,0,0,0,2,1,0,0,0,0,0,0,0,0,0,0,2,1,1,1,0,0,0,0,7
"Roswiesenstrasse 122, 8051 Zürich",,47.40621455,8.578507400000003,4002071320,5.0,96m²,10,1,39,1,2,1,1,1,11,1,3,1,0,0,2,1,0,0,1,1,7,1,5,1,16,1,0,0,14,1,111
"Lindhaldenstrasse 120, 3076 Worb",,46.9278411,7.577855769082266,4002071305,5.0,96m²,5,1,5,1,1,1,0,0,1,1,4,1,0,0,1,1,0,0,0,0,1,1,1,1,1,1,0,0,5,1,25
